stop_id,stop_code,stop_name,stop_desc,stop_lat,stop_lon,zone_id,stop_url,location_type,parent_station,wheelchair_boarding,vehicle_type
1:PEABBE,,Abbé Pierre,,42.69090170,2.87551780,,,1,,0,
1:CAABRI,,Abricotiers,,42.65329740,2.83498310,,,1,,0,
1:LSAGLY,,Agly,,42.76694100,2.98703150,,,1,,0,
1:TOALBE,,Albères,,42.66651820,2.83232780,,,1,,0,
1:CNALIZ,,Alizés,,42.70296860,3.02272010,,,1,,0,
1:ESALOE,,Aloès,,42.70750430,2.83560040,,,1,,0,
1:MAALOE,,Aloès,,42.73410020,3.02924320,,,1,,0,
1:PEAMAR,,Amarell,,42.69587880,2.93053470,,,1,,0,
1:CYAMPE,,Ampère,,42.68876320,2.91990670,,,1,,0,
1:LBANNI,,Annibal,,42.80569070,3.03727690,,,1,,0,
1:LSANNI,,Annibal,,42.77181400,3.00663790,,,1,,0,
1:BOARAG,,Arago,,42.73363930,2.93391780,,,1,,0,
1:ESARAG,,Arago,,42.70872310,2.84362070,,,1,,0,
1:PEARAG,,Arago,,42.69855120,2.89220120,,,1,,0,
1:LSARAM,,Aramon,,42.77605820,2.98341050,,,1,,0,
1:POARBO,,Arbousiers,,42.64592430,2.87044130,,,1,,0,
1:PEARCA,,Arcades,,42.67880240,2.88130880,,,1,,0,
1:PEARCH,,Archers,,42.69493860,2.89292230,,,1,,0,
1:PEARDE,,Ardennes,,42.68754240,2.89990650,,,1,,0,
1:RIARNA,,Arnaud de Villeneuve,,42.76858700,2.87663940,,,1,,0,
1:CGARQU,,Arque,,42.74560990,2.62622000,,,1,,0,
1:PEAREN,,Arène,,42.68941430,2.89294260,,,1,,0,
1:PEARGE,,Avenue d'Argelès,,42.67864320,2.91219930,,,1,,0,
1:POAVEN,,Avenue du Roussi,,42.64111510,2.87432550,,,1,,0,
1:CNAVEN,,Avenue du Roussillon,,42.69785300,3.03064700,,,1,,0,
1:PEAVIA,,Aviateurs,,42.68481450,2.88918070,,,1,,0,
1:LSAVIA,,Aviation,,42.77476850,2.99008450,,,1,,0,
1:PEAERD,,Aérodrome,,42.72405620,2.88268790,,,1,,0,
1:PEAERO,,Aéroport,,42.74085620,2.86704180,,,1,,0,
1:PEBACC,,Bacchus,,42.68734140,2.88720840,,,1,,0,
1:PEBADA,,Badalona,,42.66560740,2.87888990,,,1,,0,
1:BABAHO,,Baho,,42.70143320,2.82501700,,,1,,0,
1:PEBAIL,,Baillat,,42.67210580,2.89065770,,,1,,0,
1:PEBAIY,,Baillaury,,42.67863840,2.90812720,,,1,,0,
1:TRBAIX,,Baixarade,,42.75305360,2.99227050,,,1,,0,
1:BXBAIX,,Baixas,,42.75346260,2.81707590,,,1,,0,
1:ESBAIX,,Baixas,,42.71809240,2.84140150,,,1,,0,
1:BXSTAD,,Baixas - Stade,,42.75413450,2.81399110,,,1,,0,
1:CYBAJO,,Bajoles,,42.68076300,2.94495300,,,1,,0,
1:TOBALT,,Baltaza,,42.66504470,2.83228430,,,1,,0,
1:PEBARA,,Barande,,42.71088640,2.89011510,,,1,,0,
1:PEBARC,,Barcarolles,,42.68807090,2.90805500,,,1,,0,
1:PEBARR,,Barrère,,42.67842860,2.89152150,,,1,,0,
1:PEBAV1,,Bas Vernet 1,,42.70571140,2.88076700,,,1,,0,
1:PEBAV3,,Bas Vernet 3,,42.70623970,2.87784830,,,1,,0,
1:PEBAV4,,Bas Vernet 4,,42.70296480,2.87856590,,,1,,0,
1:PEBATE,,Batère,,42.68479910,2.90526390,,,1,,0,
1:CYBECQ,,Becquerel,,42.68989930,2.92409660,,,1,,0,
1:PEBELF,,Belfort,,42.68895400,2.88123610,,,1,,0,
1:PEBERT,,Berta,,42.72717240,2.90123800,,,1,,0,
1:CNBFM2,,BFM,,42.68352310,3.03432930,,,1,,0,
1:PEBOIS,,Bois des Pins,,42.65983950,2.88435030,,,1,,0,
1:BONORD,,Bompas Nord,,42.73527200,2.93899200,,,1,,0,
1:PEBONS,,Bon Secours,,42.69179530,2.88329360,,,1,,0,
1:PEBOUC,,Boucher,,42.69639390,2.90720390,,,1,,0,
1:PEBOUR,,Bourrat,,42.70116420,2.90107330,,,1,,0,
1:PEBOUS,,Boussiron,,42.69734200,2.92926300,,,1,,0,
1:PEBRET,,Bretonneau,,42.66554830,2.88660070,,,1,,0,
1:PEBRIA,,Briand,,42.69478440,2.90116810,,,1,,0,
1:PEBROA,,Broadway,,42.68703840,2.90621700,,,1,,0,
1:PEBROU,,Broussais,,42.67035860,2.89034770,,,1,,0,
1:PEBRUT,,Brutus,,42.72269750,2.88661720,,,1,,0,
1:PEBRUX,,Bruxelles,,42.68827630,2.84916040,,,1,,0,
1:TABYRR,,Byrrh,,42.81441070,2.73839860,,,1,,0,
1:PECCPE,,C.C. Porte d'Espagne,,42.66879970,2.87847740,,,1,,0,
1:CYCAB1,,Cabestany,,42.67990590,2.93478820,,,1,,0,
1:CYCAB2,,Cabestany,,42.67966990,2.93523000,,,1,,0,
1:CYCABE,,Cabestany,,42.67987990,2.93518680,,,1,,0,
1:PECABR,,Cabrit,,42.69701430,2.88239630,,,1,,0,
1:CCCALV,,Calce Village,,42.75869770,2.75439830,,,1,,0,
1:RICAMI,,Cami de Vingrau,,42.77693390,2.87099040,,,1,,0,
1:CYCAMI,,Camille Claudel,,42.68881330,2.93835330,,,1,,0,
1:MACAMP,,Camp l'Oliu,,42.72846600,3.02102720,,,1,,0,
1:CACAMP,,Campagne,,42.65555510,2.83656550,,,1,,0,
1:NACAMP,,Camping,,42.67207530,2.98928240,,,1,,0,
1:PECAMP,,Campus,,42.68313230,2.90187270,,,1,,0,
1:PECAMU,,Camus,,42.69054630,2.90951200,,,1,,0,
1:CNCAND,,Candelles,,42.69509310,3.02796100,,,1,,0,
1:CNCCOM,,Canet CC,,42.69990550,3.02218470,,,1,,0,
1:CNCPLA,,Canet Plage,,42.69649490,3.03247420,,,1,,0,
1:CNCSU1,,Canet Sud,,42.67778780,3.03111320,,,1,,0,
1:CNCSU2,,Canet Sud,,42.67776870,3.03090070,,,1,,0,
1:CNCVIL,,Canet Village,,42.70475570,3.00499590,,,1,,0,
1:FECANI,,Canigou,,42.68182750,2.73746290,,,1,,0,
1:RACANI,,Canigou,,42.62565110,2.92105160,,,1,,0,
1:SACANI,,Canigou,,42.65262020,2.94506350,,,1,,0,
1:CACANO,,Canohès,,42.65158070,2.83176610,,,1,,0,
1:PECANT,,Canteroux,,42.67651230,2.89007790,,,1,,0,
1:LBCAPC,,Cap Coudalère,,42.81532330,3.02199760,,,1,,0,
1:RICAPR,,Cap Roussillon,,42.77560070,2.90882600,,,1,,0,
1:NASTNA,,Cap Sud,,42.66629020,2.98502790,,,1,,0,
1:CACAPU,,Capucines,,42.65705110,2.83499930,,,1,,0,
1:CACARA,,Caratg,,42.64251300,2.83604580,,,1,,0,
1:CACARI,,Carignans,,42.64932570,2.83559380,,,1,,0,
1:VSCARX,,Carxofe,,42.72636020,2.97510840,,,1,,0,
1:SACASE,,Casenobe,,42.65295220,2.94965390,,,1,,0,
1:CPCASP,,Cases-de-Pène,,42.77886010,2.78995630,,,1,,0,
1:CGCASS,,Cassagnes,,42.73929590,2.61143950,,,1,,0,
1:PECASS,,Cassanyes,,42.69772720,2.90414080,,,1,,0,
1:PYCASS,,Cassanyes,,42.75471500,2.85467550,,,1,,0,
1:PECSIN,,Cassin,,42.68123570,2.89508980,,,1,,0,
1:PECAST,,Castillet,,42.70097560,2.89395690,,,1,,0,
1:PECBRA,,Catalogne Brasserie,,42.69926790,2.88853340,,,1,,0,
1:PECJVI,,Catalogne J. Violet,,42.69810490,2.88813140,,,1,,0,
1:PECPTC,,Catalogne Pt Chaud,,42.69819250,2.88880090,,,1,,0,
1:PECSUL,,Catalogne rue Sully,,42.69809340,2.88924960,,,1,,0,
1:POCAVE,,Cave,,42.63825120,2.87357500,,,1,,0,
1:BXCAYR,,Cayrol,,42.75154820,2.81145000,,,1,,0,
1:PZCENT,,Centrale d'Achat,,42.69929500,2.77699300,,,1,,0,
1:POCENT,,Centre Ancien,,42.63699780,2.86788060,,,1,,0,
1:BOCCOM,,Centre Commercial,,42.72152360,2.93257210,,,1,,0,
1:RICCOM,,Centre Commercial,,42.77518450,2.91573420,,,1,,0,
1:PZCCUL,,Centre Culturel,,42.69585220,2.76889180,,,1,,0,
1:TACENT,,Centre de Vacances,,42.81779060,2.74141950,,,1,,0,
1:RACERD,,Cerdagne,,42.63543890,2.91991130,,,1,,0,
1:SARESI,,Cerdagne,,42.65682480,2.92904830,,,1,,0,
1:RACIME,,Chapelle,,42.63421060,2.92090510,,,1,,0,
1:BOCHAR,,Charrette,,42.72165100,2.92885650,,,1,,0,
1:SOCHAT,,Chateaubriand,,42.68145370,2.79140780,,,1,,0,
1:PECHAU,,Chauvet,,42.68889050,2.90374480,,,1,,0,
1:PECHEF,,Chefdebien,,42.68327330,2.88531660,,,1,,0,
1:EACHEM,,Chemin d'Estagel,,42.77515410,2.83663150,,,1,,0,
1:PECHEV,,Chevreul,,42.69193270,2.90398180,,,1,,0,
1:PECHOC,,Chocolaterie,,42.67931750,2.85430840,,,1,,0,
1:RICHRE,,Chrétien,,42.77447510,2.91038930,,,1,,0,
1:POCHAT,,Château d'Eau,,42.63812870,2.86666340,,,1,,0,
1:PECHAT,,Château Roussillon,,42.70405200,2.94447460,,,1,,0,
1:SOCHEN,,Chênes Verts,,42.68134110,2.78491600,,,1,,0,
1:BOCIME,,Cimetière,,42.73448570,2.93655590,,,1,,0,
1:ESCIME,,Cimetière,,42.70943640,2.84974340,,,1,,0,
1:PECIMS,,Cimetière Sud,,42.66492490,2.86606740,,,1,,0,
1:PECITA,,Citadelle,,42.69393540,2.89303150,,,1,,0,
1:CNCITO,,Citoyen,,42.70474620,3.01192210,,,1,,0,
1:PECSTA,,Cité St-Assiscle,,42.68989180,2.86773060,,,1,,0,
1:PECITE,,Cité Universitaire,,42.67906000,2.90021680,,,1,,0,
1:TOCLAI,,Clairfont,,42.66576380,2.83713420,,,1,,0,
1:PECLAU,,Claude Bernard,,42.70413780,2.90250560,,,1,,0,
1:PECSIM,,Claude Simon,,42.69935030,2.94294000,,,1,,0,
1:LSCLEM,,Clemenceau,,42.76818270,2.98183060,,,1,,0,
1:PECLEM,,Clemenceau,,42.70038050,2.88998620,,,1,,0,
1:PECMUT,,Clinique Mutualiste,,42.72705320,2.87673900,,,1,,0,
1:ESCLIN,,Cliniques,,42.72138590,2.84762880,,,1,,0,
1:PECLOD,,Clodion,,42.70219420,2.88258920,,,1,,0,
1:PECBAN,,Clos-Banet,,42.69891100,2.92949070,,,1,,0,
1:PECOLI,,Collioure,,42.68399050,2.90914650,,,1,,0,
1:CNCOLL,,Collège,,42.70600890,2.99834030,,,1,,0,
1:ESCOLL,,Collège,,42.70784370,2.84138540,,,1,,0,
1:ELCOLL,,Collège Estagel,,42.77079370,2.69518550,,,1,,0,
1:RICOLL,,Collège Joffre,,42.76717580,2.87904090,,,1,,0,
1:TOCOLL,,Collège Mitterrand,,42.66593550,2.84124450,,,1,,0,
1:PECOLL,,Collège Pons,,42.71646690,2.88879960,,,1,,0,
1:CACOLO,,Colomina,,42.66357040,2.84417060,,,1,,0,
1:ESCONF,,Conflent,,42.71175950,2.83270240,,,1,,0,
1:PECONF,,Conflent,,42.69885440,2.87779960,,,1,,0,
1:POCONS,,Constellations,,42.63235330,2.86952410,,,1,,0,
1:PECOQU,,Coquelicots,,42.70173830,2.90456510,,,1,,0,
1:CNCOQU,,Coquillages,,42.68430140,3.03112910,,,1,,0,
1:LBCORB,,Corbières,,42.78547670,3.03416750,,,1,,0,
1:PECORV,,Corvisart,,42.66600030,2.89048730,,,1,,0,
1:PECOST,,Costa Brava,,42.66134260,2.88014510,,,1,,0,
1:LBCOUD,,Coudalère,,42.81509200,3.02904000,,,1,,0,
1:CNCROI,,Croix du sud,,42.68897240,3.03218280,,,1,,0,
1:SACROU,,Crouettes,,42.65866270,2.95007670,,,1,,0,
1:PECERE,,Céret,,42.68535090,2.90527840,,,1,,0,
1:CNCOTE,,Côte-Radieuse,,42.67939370,3.03174760,,,1,,0,
1:PECOTE,,Côte-Radieuse,,42.67486950,2.90477960,,,1,,0,
1:PEDAHL,,Dahlias,,42.70451900,2.90527440,,,1,,0,
1:PEDALB,,Dalbiez,,42.68567460,2.88209250,,,1,,0,
1:CYDGAU,,De Gaulle,,42.68397510,2.94234240,,,1,,0,
1:PEDEGA,,Degas,,42.69233700,2.91233290,,,1,,0,
1:LSDELA,,Delacroix,,42.77539420,2.98542270,,,1,,0,
1:PEDEPE,,Depéret,,42.67622370,2.88070870,,,1,,0,
1:PEDERA,,Derain,,42.71845050,2.89540470,,,1,,0,
1:PEDESN,,Desnoyés,,42.71122160,2.88459070,,,1,,0,
1:PEDESP,,Desprès,,42.70893280,2.88579730,,,1,,0,
1:PEDIDE,,Diderot,,42.70290500,2.90800320,,,1,,0,
1:PEDIOC,,Diocèse,,42.68906970,2.84279980,,,1,,0,
1:PODISC,,Discobole,,42.64347090,2.86686050,,,1,,0,
1:PEDOMB,,Dombasle,,42.68826480,2.87467600,,,1,,0,
1:PEDONS,,Don du Sang,,42.72539870,2.89204790,,,1,,0,
1:PEDONN,,Donnezan,,42.67329020,2.88450930,,,1,,0,
1:ESDRHO,,Droits de l'Homme,,42.71056940,2.85715640,,,1,,0,
1:PEDUCU,,Ducup,,42.69020080,2.83550040,,,1,,0,
1:EADUVE,,Duverney,,42.77323720,2.84105480,,,1,,0,
1:FAUR,,Dépôt FAUR,,42.68932090,2.85134500,,,1,,0,
1:DEPOT,,Dépôt Sankeo,,42.72278640,2.89773720,,,1,,0,
1:PEEAUX,,Eaux Vives,,42.69423100,2.87186400,,,1,,0,
1:BXECOL,,Ecole de Baixas,,42.75157950,2.81040850,,,1,,0,
1:CYECOL,,Ecole de Musique,,42.67570870,2.93720910,,,1,,0,
1:CPECOZ,,Ecozonia,,42.78256440,2.77904970,,,1,,0,
1:PEELVI,,El Vivès,,42.71360650,2.90119010,,,1,,0,
1:SAEOLI,,Eolienne,,42.65546410,2.95747770,,,1,,0,
1:RIESPA,,Espace Entreprises,,42.80330270,2.89693710,,,1,,0,
1:EAESPI,,Espira de l'Agly,,42.77740990,2.82986490,,,1,,0,
1:ELESTA,,Estagel,,42.77244190,2.69940540,,,1,,0,
1:CNEURO,,Europa,,42.70165440,3.01469700,,,1,,0,
1:POEURO,,Europe,,42.63960640,2.87186930,,,1,,0,
1:EVC,,Evasion Catalane,,42.61132690,2.97831100,,,1,,0,
1:BAEVOR,,Evora,,42.70190800,2.81859890,,,1,,0,
1:CYFABR,,Fabre,,42.67674440,2.93425520,,,1,,0,
1:CCFARA,,Faratjal,,42.75781250,2.75614190,,,1,,0,
1:PEFAUC,,Fauceille,,42.66969290,2.90501900,,,1,,0,
1:PEFAUV,,Fauvelle,,42.68511580,2.86689900,,,1,,0,
1:CYFAUV,,Fauvettes,,42.68417720,2.93525490,,,1,,0,
1:RIFENO,,Fenouil,,42.77942080,2.88204530,,,1,,0,
1:MAFEST,,Festivités,,42.73031990,3.03558340,,,1,,0,
1:CNFIGA,,Figarasse,,42.69981190,3.00168420,,,1,,0,
1:PEFLAN,,Flandres Dunkerque,,42.68567470,2.90616110,,,1,,0,
1:CNFLOR,,Floralies,,42.68935010,3.03192190,,,1,,0,
1:LBFLOR,,Floride,,42.77853770,3.03013930,,,1,,0,
1:PEFORE,,Forest,,42.68638980,2.86889670,,,1,,0,
1:PEFORM,,Formation,,42.67499150,2.84917710,,,1,,0,
1:ESFORE,,Forêt,,42.71383470,2.83265900,,,1,,0,
1:PEFOSS,,Fossa,,42.69258100,2.88543340,,,1,,0,
1:ESFOUR,,Fournas,,42.71532810,2.83527330,,,1,,0,
1:PEFOUR,,Fourneyron,,42.68377870,2.86408690,,,1,,0,
1:PEFRAT,,Fraternité,,42.73045530,2.87549220,,,1,,0,
1:PEGLIO,,Gare multimodale liO,,42.69502390,2.87915010,,,1,,0,
1:PEGROU,,Gare Routière,,42.70120160,2.88780030,,,1,,0,
1:PESNCC,,Gare SNCF,,42.69605670,2.88076890,,,1,,0,
1:PESNCF,,Gare SNCF,,42.69666750,2.88014420,,,1,,0,
1:PEGAR1,,Gare TGV,,42.69611740,2.87819080,,,1,,0,
1:PEGAR2,,Gare TGV,,42.69669200,2.87822120,,,1,,0,
1:PEGARR,,Garrigole,,42.69437790,2.86817300,,,1,,0,
1:PEGAUG,,Gauguin,,42.71766050,2.88936670,,,1,,0,
1:RIGCR,,Gd Circuit du Rouss.,,42.78014880,2.90882060,,,1,,0,
1:PEGEND,,Gendarmerie,,42.69427480,2.90407010,,,1,,0,
1:CYGENE,,Genêts,,42.67465590,2.94116540,,,1,,0,
1:PEGERH,,Gerhardt,,42.67618910,2.84408100,,,1,,0,
1:CYGERM,,Germanor,,42.67329990,2.94457720,,,1,,0,
1:RIGINE,,Ginèbre,,42.77980420,2.87789740,,,1,,0,
1:PEGIRA,,Giral,,42.71497690,2.88850000,,,1,,0,
1:CNGRAN,,Grand Large,,42.68708800,3.03170750,,,1,,0,
1:PEGRAN,,Grande-Bretagne,,42.69866940,2.87605360,,,1,,0,
1:BOGRAN,,Granja,,42.73322460,2.93919300,,,1,,0,
1:CAGREN,,Grenache,,42.64999250,2.83080950,,,1,,0,
1:PEGMET,,Guillaumet,,42.73077370,2.86889140,,,1,,0,
1:PEGUIL,,Guillaut,,42.69062400,2.89378740,,,1,,0,
1:SOGUYM,,Guy Malé,,42.68187320,2.79634540,,,1,,0,
1:PEGUYN,,Guynemer,,42.68885060,2.90697760,,,1,,0,
1:PEGERO,,Gérone,,42.66691930,2.88275150,,,1,,0,
1:BOHALL,,Halle aux Sports,,42.73431230,2.93081250,,,1,,0,
1:PEHAMB,,Hambourg,,42.67856970,2.85164210,,,1,,0,
1:CNHAME,,Hameau,,42.70642280,2.99238130,,,1,,0,
1:PEHAUT,,Haut-Vernet,,42.72858430,2.88835730,,,1,,0,
1:CNHERR,,Herriot,,42.69110300,3.03204930,,,1,,0,
1:PEHLM,,HLM St-Louis,,42.70555000,2.89215860,,,1,,0,
1:LBHOUR,,Hourtou,,42.79180350,3.03012740,,,1,,0,
1:PEHOPI,,Hôpital,,42.72562980,2.88747590,,,1,,0,
1:PEHOTE,,Hôtel de Police,,42.69948990,2.88351720,,,1,,0,
1:CNHOTV,,Hôtel de Ville,,42.70523790,3.00708430,,,1,,0,
1:SAHOTV,,Hôtel de Ville,,42.65504760,2.95350980,,,1,,0,
1:CAIRIS,,Iris,,42.64458680,2.83666400,,,1,,0,
1:PEIUT,,IUT,,42.68333740,2.89548160,,,1,,0,
1:PTJARD,,Jardin Exotique,,42.62497520,2.81851450,,,1,,0,
1:SOJEAN,,Jean Jaurès,,42.68317910,2.80231690,,,1,,0,
1:PEJMOU,,Jean Moulin,,42.69609830,2.89890150,,,1,,0,
1:CYJZAY,,Jean Zay,,42.68343510,2.94685940,,,1,,0,
1:TRJOFF,,Joffre,,42.75610960,2.99324890,,,1,,0,
1:PEJONQ,,Jonquère,,42.66393850,2.87963530,,,1,,0,
1:PEJOTG,,Jotglars,,42.69453040,2.89019870,,,1,,0,
1:PEJUGA,,Jugan,,42.67301360,2.90475360,,,1,,0,
1:PEJUIN,,Juin,,42.68823940,2.89669050,,,1,,0,
1:TRJUME,,Jumelage,,42.75560180,2.99563850,,,1,,0,
1:PEKENN,,Kennedy,,42.69038390,2.90176390,,,1,,0,
1:TOLABA,,La Basse,,42.67530820,2.83963820,,,1,,0,
1:PELABU,,La Butte,,42.68704220,2.89566150,,,1,,0,
1:PELACH,,La Chaumière,,42.69952580,2.91742980,,,1,,0,
1:PELALU,,La Lunette,,42.68962290,2.89953780,,,1,,0,
1:BOLAMA,,La Martine,,42.72640040,2.93590520,,,1,,0,
1:PYLAPE,,La Pépinière,,42.75492670,2.84853990,,,1,,0,
1:TRLASE,,La Serre,,42.76306800,3.02236910,,,1,,0,
1:LSLATO,,La Tourre,,42.77376550,3.01333500,,,1,,0,
1:RALAVI,,La Vigie,,42.63737870,2.91857910,,,1,,0,
1:TOLACA,,Lacaze,,42.66851420,2.83186250,,,1,,0,
1:PELAFF,,Laffon,,42.69022750,2.87994040,,,1,,0,
1:PELALA,,Lalande,,42.70834760,2.89464450,,,1,,0,
1:BOLMAN,,Lamans,,42.72574420,2.93211250,,,1,,0,
1:PELAMB,,Lambert,,42.71093370,2.89893930,,,1,,0,
1:PELVIN,,Langevin,,42.68753620,2.87173550,,,1,,0,
1:PELAN1,,Languedoc,,42.74060420,2.89186970,,,1,,0,
1:PELAN2,,Languedoc,,42.74029690,2.89188400,,,1,,0,
1:PELAN3,,Languedoc,,42.74066830,2.89200820,,,1,,0,
1:CNLASB,,Las Bigues,,42.70599590,3.01255760,,,1,,0,
1:CALASC,,Las Canals,,42.65684310,2.83812360,,,1,,0,
1:PELASC,,Las Cobas,,42.69574030,2.91933020,,,1,,0,
1:RIOLIV,,Las Solades,,42.78225900,2.87899600,,,1,,0,
1:PELASS,,Lassus,,42.70195190,2.90256450,,,1,,0,
1:LBLBAR,,Le Barcarès,,42.83903690,3.03652410,,,1,,0,
1:PELECH,,Le Chatelier,,42.69014550,2.90531810,,,1,,0,
1:BALECH,,Le Christ,,42.70097920,2.82183620,,,1,,0,
1:RALELA,,Le Lac,,42.64049400,2.90978500,,,1,,0,
1:CNLEMA,,Le Mail,,42.69921300,3.00631950,,,1,,0,
1:CNLEPO,,Le Ponant,,42.70397100,3.02159090,,,1,,0,
1:SOLSOL,,Le Soler,,42.67931230,2.77988860,,,1,,0,
1:SOMEDI,,Le Soler Méd,,42.68530380,2.81170930,,,1,,0,
1:PYLESA,,Les Avens,,42.75507350,2.85284840,,,1,,0,
1:PELCHE,,Les Chênes,,42.68785100,2.84002510,,,1,,0,
1:NALESF,,Les Fontaines,,42.68918610,2.99873550,,,1,,0,
1:PELESO,,Les Oiseaux,,42.71270030,2.88936070,,,1,,0,
1:PYORME,,Les Ormes,,42.75345270,2.85448910,,,1,,0,
1:SOLESS,,Les Sources,,42.68764300,2.82289860,,,1,,0,
1:PELESC,,Lescot,,42.69298020,2.91854980,,,1,,0,
1:CNLEVA,,Levant,,42.70524200,3.01746500,,,1,,0,
1:CNLIBE,,Liberté,,42.70534130,3.00384370,,,1,,0,
1:PZLIBE,,Liberté,,42.69721410,2.77411590,,,1,,0,
1:POLIBE,,Libertés,,42.64510690,2.87333710,,,1,,0,
1:LBLIDO,,Lido,,42.81158060,3.03719020,,,1,,0,
1:PELIPP,,Lippman,,42.69219020,2.86003350,,,1,,0,
1:PELLOB,,Llobères,,42.69689940,2.94271050,,,1,,0,
1:LLLLUP,,Llupia,,42.61680480,2.76923470,,,1,,0,
1:LLMIMO,,Llupia Mimosas,,42.62369170,2.76467760,,,1,,0,
1:CNLOGE,,Loge de Mer,,42.70111650,3.02759450,,,1,,0,
1:FELOTI,,Lotissement,,42.67969510,2.74340360,,,1,,0,
1:PELURC,,Lurçat,,42.69085500,2.90852630,,,1,,0,
1:RILYCA,,Lycée Agricole,,42.76543010,2.86906020,,,1,,0,
1:PELYAR,,Lycée Arago,,42.69526370,2.88735160,,,1,,0,
1:PELMA1,,Lycée Maillol,,42.71775040,2.88643480,,,1,,0,
1:PELMA2,,Lycée Maillol,,42.71816420,2.88728720,,,1,,0,
1:PELMA3,,Lycée Maillol,,42.71718210,2.88739870,,,1,,0,
1:PELPIC,,Lycée Picasso,,42.69755520,2.92604950,,,1,,0,
1:LBLYDI,,Lydia,,42.83089070,3.03858850,,,1,,0,
1:CNMAPR,,Ma Prairie,,42.70119810,2.99919940,,,1,,0,
1:PEMADR,,Madrid,,42.68718280,2.84390980,,,1,,0,
1:LSMAIL,,Maillol,,42.77047530,2.99694480,,,1,,0,
1:FEMAIR,,Mairie,,42.68264950,2.73481440,,,1,,0,
1:VSMAIR,,Mairie,,42.72742830,2.98608640,,,1,,0,
1:LBMAIR,,Mairie - Le Barcarès,,42.78924170,3.03538530,,,1,,0,
1:NAMAIR,,Mairie - St-Nazaire,,42.66838640,2.99022700,,,1,,0,
1:ESMAIR,,Mairie St-Estève,,42.70898810,2.84601620,,,1,,0,
1:VRMAIR,,Mairie Vill.-la-Riv.,,42.69313040,2.80113290,,,1,,0,
1:PEMAJO,,Majorque,,42.69542300,2.89514720,,,1,,0,
1:CYMALV,,Malvoisie,,42.67854680,2.94614630,,,1,,0,
1:CNMARE,,Marenda,,42.68139830,3.03160230,,,1,,0,
1:MAMARE,,Marendes,,42.73416510,3.03218210,,,1,,0,
1:CNMIAM,,Marina,,42.70071340,3.03193490,,,1,,0,
1:LBMARI,,Marines,,42.83356670,3.03733650,,,1,,0,
1:CYMASA,,Mas Anglade,,42.68716810,2.93445290,,,1,,0,
1:PEMASB,,Mas Balande,,42.66709750,2.91838700,,,1,,0,
1:PEMBED,,Mas Bedos,,42.67709190,2.84778840,,,1,,0,
1:CYMASB,,Mas Bonique,,42.68219180,2.94975470,,,1,,0,
1:PEMBRU,,Mas Bruno,,42.69577410,2.86082820,,,1,,0,
1:CNMASB,,Mas Bruzy,,42.70822520,2.97699090,,,1,,0,
1:PEMASC,,Mas Cayrol,,42.68972300,2.83251170,,,1,,0,
1:RIMASG,,Mas de la Garrigue,,42.78336670,2.89913220,,,1,,0,
1:RAMASR,,Mas de la Raho,,42.63889500,2.91517660,,,1,,0,
1:CYMASF,,Mas Ferrer,,42.68942660,2.94220930,,,1,,0,
1:LSMASF,,Mas Fleuri,,42.77058590,2.98221220,,,1,,0,
1:CYMASG,,Mas Guérido,,42.69202600,2.92160400,,,1,,0,
1:CNMASL,,Mas Llaro,,42.70656780,2.95384490,,,1,,0,
1:CNMASM,,Mas Miraflor,,42.70947840,2.97095910,,,1,,0,
1:RAMASP,,Mas Palégry,,42.65597720,2.90654550,,,1,,0,
1:BOMASP,,Mas Pams,,42.72958560,2.93504980,,,1,,0,
1:TOMAPS,,Mas Puig-Sec,,42.67306900,2.82708700,,,1,,0,
1:PEMSTJ,,Mas St-Joseph,,42.69818110,2.93607850,,,1,,0,
1:PEMSTP,,Mas St-Pierre,,42.69278800,2.94420720,,,1,,0,
1:BOMAST,,Mas Taillant,,42.71897790,2.92717300,,,1,,0,
1:PEMASV,,Mas Vermeil,,42.69433950,2.93600490,,,1,,0,
1:CAMASS,,Massaguères,,42.65334310,2.83198170,,,1,,0,
1:PEMANE,,Massane,,42.69793700,2.87096490,,,1,,0,
1:PEMAS1,,Massilia,,42.69998930,2.93319460,,,1,,0,
1:PEMAS2,,Massilia,,42.70010760,2.93480520,,,1,,0,
1:PEMAS4,,Massilia,,42.69930400,2.93480000,,,1,,0,
1:PEMAS5,,Massilia,,42.69938090,2.93447900,,,1,,0,
1:PEMAS6,,Massilia,,42.70006920,2.93475900,,,1,,0,
1:LSMASS,,Massé,,42.76657100,2.98526030,,,1,,0,
1:PEMSSE,,Massé,,42.72125820,2.89033170,,,1,,0,
1:PEMAUR,,Maureillas,,42.68363940,2.90692010,,,1,,0,
1:PEMEIL,,Meilhac,,42.72248420,2.89065200,,,1,,0,
1:PEMEIS,,Meissonnier,,42.69618970,2.91257950,,,1,,0,
1:PEMERC,,Mercader,,42.69428550,2.88964160,,,1,,0,
1:PEMERM,,Mermoz,,42.69579500,2.90446020,,,1,,0,
1:SAMICH,,Michelet,,42.65891070,2.94513370,,,1,,0,
1:PEMILA,,Milan,,42.68961710,2.85980510,,,1,,0,
1:PEMIMO,,Mimosas,,42.70522680,2.90757480,,,1,,0,
1:CNMINI,,Minigolf,,42.68614450,3.03460760,,,1,,0,
1:PEMINO,,Minorque,,42.66741550,2.88020670,,,1,,0,
1:CNMOLI,,Moli del Vent,,42.70089140,3.00935390,,,1,,0,
1:PEMQUI,,Montesquieu,,42.68046470,2.90310870,,,1,,0,
1:PEMONT,,Monticelli,,42.73250580,2.88951430,,,1,,0,
1:MOMONT,,Montner,,42.74997420,2.67776720,,,1,,0,
1:CNMOUD,,Moudat,,42.69689040,3.02758050,,,1,,0,
1:PEMOUI,,Mouillard,,42.72666260,2.87410650,,,1,,0,
1:VSMOUL,,Moulin,,42.72735780,2.98980780,,,1,,0,
1:PEMOUL,,Moulin à Vent,,42.68057580,2.90882480,,,1,,0,
1:RIMOUR,,Mourère,,42.76547420,2.87592510,,,1,,0,
1:PEMUTU,,Mutualité,,42.66888040,2.88945250,,,1,,0,
1:PEMUNO,,Muñoz,,42.68053430,2.89326010,,,1,,0,
1:CNMEDI,,Médi'Canet,,42.70388410,3.01464490,,,1,,0,
1:CYMED,,Médipole,,42.69187740,2.93234690,,,1,,0,
1:ESMEDI,,Méditerranée,,42.71713250,2.83860580,,,1,,0,
1:LBMED,,Méditerranée,,42.79189680,3.03547310,,,1,,0,
1:TONATU,,Naturopole,,42.66365810,2.83480720,,,1,,0,
1:LBNAUT,,Nautica,,42.81104280,3.03010200,,,1,,0,
1:LBNAIA,,Naïades,,42.83795920,3.03946340,,,1,,0,
1:RANORM,,Normandie,,42.63062130,2.91926530,,,1,,0,
1:PENUNG,,Nungesser et Coli,,42.68203920,2.89162570,,,1,,0,
1:NYNYLS,,Nyls,,42.62824820,2.84538970,,,1,,0,
1:LBOASI,,Oasis,,42.77596850,3.02413230,,,1,,0,
1:PEOCCI,,Occitanie,,42.68320210,2.90786050,,,1,,0,
1:TROFFI,,Office du Tourisme,,42.76591480,3.02750850,,,1,,0,
1:PEOISE,,Oiseau Blanc,,42.68897770,2.88520200,,,1,,0,
1:HYOLIV,,Oliviers,,42.78721460,2.96407070,,,1,,0,
1:LLOLIV,,Olivèdes,,42.62341300,2.77018000,,,1,,0,
1:POOLYM,,Olympéo,,42.64536900,2.86770400,,,1,,0,
1:MAOMEG,,Oméga,,42.73340730,3.03544310,,,1,,0,
1:OPOPOU,,Opoul,,42.86632160,2.87393570,,,1,,0,
1:CYORF,,Orfila,,42.67014670,2.94529330,,,1,,0,
1:PEPAGN,,Pagnol,,42.71346280,2.88325550,,,1,,0,
1:TAPALA,,Palais des Congrès,,42.81455990,2.74519920,,,1,,0,
1:PEPALM,,Palmarole,,42.70330240,2.89870690,,,1,,0,
1:BOPALM,,Palmeraie,,42.72800550,2.94472950,,,1,,0,
1:LSPALO,,Palombière,,42.77224350,3.00335050,,,1,,0,
1:PEPANC,,Panchot,,42.68893050,2.87709580,,,1,,0,
1:PEPARC,,Parc des Expositions,,42.70911780,2.90498550,,,1,,0,
1:BOPARC,,Parc des Loisirs,,42.73048420,2.92517810,,,1,,0,
1:PEPSP1,,Parc des Sports,,42.67730700,2.90518480,,,1,,0,
1:PEPSP2,,Parc des Sports,,42.67739300,2.90512580,,,1,,0,
1:PEPSP3,,Parc des Sports,,42.67832180,2.90523820,,,1,,0,
1:PEPSP4,,Parc des Sports,,42.67833320,2.90566280,,,1,,0,
1:PTPARC,,Parc Jonquères,,42.62486830,2.81335350,,,1,,0,
1:CNPARK,,Parking Floralies,,42.68957710,3.02905850,,,1,,0,
1:ESPARK,,Parking St-Estève,,42.70925710,2.86472850,,,1,,0,
1:PEPARK,,Parking St-Martin,,42.69538880,2.88989540,,,1,,0,
1:PEPKUN,,Parking Universit.,,42.68360490,2.89755400,,,1,,0,
1:PEPWIL,,Parking Wilson,,42.70170010,2.89584840,,,1,,0,
1:VNPASD,,Pas de l'échelle,,42.85058790,2.80094100,,,1,,0,
1:PEPASC,,Pascot,,42.67459660,2.85069220,,,1,,0,
1:PEPASS,,Passerelle,,42.70218270,2.89474510,,,1,,0,
1:TOPAUC,,Pau Casals,,42.67285910,2.83486840,,,1,,0,
1:PEPBER,,Paul Bert,,42.66371530,2.88897500,,,1,,0,
1:PEPFOR,,Paul Fort,,42.70894570,2.89086360,,,1,,0,
1:PEPERR,,Perrin,,42.73440360,2.89008950,,,1,,0,
1:PEPECL,,Petit Clos,,42.66488640,2.88030720,,,1,,0,
1:PYPEYR,,Peyrestortes,,42.75551610,2.84464130,,,1,,0,
1:CYPICA,,Picasso,,42.68580540,2.94016590,,,1,,0,
1:SAPDCO,,Pierre de Coubertin,,42.65992550,2.95190610,,,1,,0,
1:OPPLAC,,Place,,42.86974700,2.87356100,,,1,,0,
1:PEPLCA,,Place Cassanyes,,42.69711720,2.90197960,,,1,,0,
1:LAPLAC,,Place du marché,,42.76846320,2.65627980,,,1,,0,
1:PEPLAC,,Place Péri,,42.69847320,2.89135030,,,1,,0,
1:PEPLRI,,Place Rigaud,,42.69802750,2.89700490,,,1,,0,
1:LLPLAT,,Platanes,,42.62124060,2.76887200,,,1,,0,
1:BOPLAT,,Platanium,,42.72338480,2.93770840,,,1,,0,
1:LSPOIN,,Poincaré,,42.76831620,2.99220070,,,1,,0,
1:VSPOIN,,Point Jeunes,,42.72646140,2.97920290,,,1,,0,
1:CNPON,,Pole Nautique,,42.70703000,3.03449200,,,1,,0,
1:POPOLL,,Pollestres,,42.63111170,2.86961990,,,1,,0,
1:PEPOLY,,Polygone Nord,,42.73767660,2.89105960,,,1,,0,
1:PEPOMP,,Pompiers,,42.70669550,2.88613820,,,1,,0,
1:RIPONT,,Pont Autoroute,,42.75663320,2.89088320,,,1,,0,
1:PTPONT,,Ponteilla,,42.62634270,2.81416880,,,1,,0,
1:CNPORT,,Port,,42.70135080,3.03615760,,,1,,0,
1:LBPORT,,Port,,42.79568860,3.03651730,,,1,,0,
1:PEPORT,,Port Bou,,42.66051670,2.87820540,,,1,,0,
1:PEVEND,,Port Vendres,,42.68148190,2.91051950,,,1,,0,
1:PEPDES,,Porte d'Espagne,,42.66761950,2.89099560,,,1,,0,
1:SOPORT,,Portes du Soler,,42.68375970,2.80508470,,,1,,0,
1:BOPOST,,Poste,,42.73152950,2.92981540,,,1,,0,
1:CYPOST,,Poste,,42.68189260,2.93689640,,,1,,0,
1:LSPOST,,Poste,,42.77276880,2.98722190,,,1,,0,
1:PEPOST,,Poste,,42.69675100,2.88917060,,,1,,0,
1:TOPOST,,Poste,,42.67241670,2.83220000,,,1,,0,
1:POPOUD,,Pou del Gel,,42.63527860,2.87218340,,,1,,0,
1:RIPRES,,Pressoir,,42.77052120,2.88368610,,,1,,0,
1:PEPROD,,Production,,42.69080350,2.85331960,,,1,,0,
1:OPPROM,,Promenade,,42.86881160,2.87433970,,,1,,0,
1:PEPYRE,,Pyrénées,,42.69630310,2.88836060,,,1,,0,
1:RIPEAG,,Péage A9,,42.78150120,2.90049120,,,1,,0,
1:PEPEGU,,Péguy,,42.69194980,2.90620510,,,1,,0,
1:RIPEPI,,Pépinière,,42.79595940,2.88136590,,,1,,0,
1:PZPEZI,,Pézilla-la-Rivière,,42.69533540,2.76601580,,,1,,0,
1:PEPOPE,,Pêchers-Poudrière,,42.71641880,2.89663070,,,1,,0,
1:LBPECH,,Pêcheurs,,42.82155610,3.02962600,,,1,,0,
1:PEPECH,,Pêcheurs,,42.70320540,2.88744990,,,1,,0,
1:PEQNOB,,Quai Nobel,,42.69713130,2.88748370,,,1,,0,
1:PERAIS,,Raisins,,42.69281470,2.87252210,,,1,,0,
1:PERAPH,,Raphaël,,42.69131090,2.89647000,,,1,,0,
1:PEREIC,,Reichel,,42.69196700,2.86572030,,,1,,0,
1:PERENA,,Renaudel,,42.69039920,2.88368160,,,1,,0,
1:PEREPO,,Repos,,42.69117550,2.89054390,,,1,,0,
1:PERIBE,,Ribeil,,42.67177580,2.90492320,,,1,,0,
1:PERIPO,,Ripoll,,42.66214750,2.87798110,,,1,,0,
1:PERIQU,,Riquet,,42.69777650,2.88539140,,,1,,0,
1:RIRIVE,,Rivesaltes,,42.77010720,2.86975410,,,1,,0,
1:PEROBI,,Robin,,42.69800420,2.87793560,,,1,,0,
1:RIROBO,,Roboul,,42.77412410,2.87167390,,,1,,0,
1:OPROMA,,Romarins,,42.86898260,2.87663950,,,1,,0,
1:CNROSE,,Rose des Sables,,42.68010720,3.03303810,,,1,,0,
1:PEROSE,,Roseraie,,42.70249040,2.94360120,,,1,,0,
1:LSROUS,,Rousseau,,42.77395440,2.99464970,,,1,,0,
1:CNROUS,,Roussillon,,42.69758990,3.03577470,,,1,,0,
1:LBROUS,,Roussillon,,42.82356990,3.03410000,,,1,,0,
1:PEROUS,,Roussillonnaise,,42.72029690,2.88636140,,,1,,0,
1:FERCOR,,Route de Corbère,,42.67845530,2.73843550,,,1,,0,
1:PEROUT,,Route de Thuir,,42.68198200,2.86044530,,,1,,0,
1:SOROUT,,Route de Toulouges,,42.68421930,2.81833430,,,1,,0,
1:PERUBE,,Rubens,,42.69498740,2.91469960,,,1,,0,
1:SAREAR,,Réart,,42.65261830,2.94213520,,,1,,0,
1:BORESI,,Résidence Canigou,,42.72895620,2.93198660,,,1,,0,
1:PESACR,,Sacré Coeur,,42.71667050,2.88238850,,,1,,0,
1:BOSALA,,Salanque,,42.72950490,2.93921440,,,1,,0,
1:RISALA,,Salanque,,42.75994300,2.87279060,,,1,,0,
1:SASALE,,Saleilles,,42.66007990,2.94057960,,,1,,0,
1:PESANK,,Sankéo,,42.72150810,2.89627880,,,1,,0,
1:ESSARD,,Sardane,,42.71615400,2.84759070,,,1,,0,
1:RISARD,,Sardane,,42.76156620,2.87609060,,,1,,0,
1:PESATE,,Satellite,,42.70729520,2.90116150,,,1,,0,
1:CNSAUV,,Sauvy,,42.69573780,3.02983570,,,1,,0,
1:LBSTAN,,St-Ange,,42.80181690,3.03701330,,,1,,0,
1:PESTAS,,St-Assiscle,,42.69176620,2.88059030,,,1,,0,
1:ESSTES,,St-Estève,,42.70684620,2.83897170,,,1,,0,
1:FESFDA,,St-Féliu d'Avall,,42.68377020,2.73101570,,,1,,0,
1:PTSTGA,,St-Galdric,,42.62931240,2.81702350,,,1,,0,
1:PESTGA,,St-Gaudérique,,42.69285700,2.91376120,,,1,,0,
1:HYSTHI,,St-Hippolyte,,42.78005780,2.96317530,,,1,,0,
1:LSSTJA,,St-Jacques,,42.77257350,2.99840670,,,1,,0,
1:PESTJA,,St-Jacques,,42.69879910,2.90556870,,,1,,0,
1:TRSTJU,,St-Julien,,42.75532530,3.00184510,,,1,,0,
1:LSLSAL,,St-Laurent / Slque,,42.77315900,3.01036180,,,1,,0,
1:PESTLO,,St-Louis,,42.71543300,2.88260750,,,1,,0,
1:ESSTMA,,St-Mamet,,42.71012490,2.85358100,,,1,,0,
1:PESTMA,,St-Martin,,42.69359830,2.88795160,,,1,,0,
1:CNSTMI,,St-Michel,,42.70687480,2.98585880,,,1,,0,
1:HYSTMI,,St-Michel,,42.78428460,2.96520640,,,1,,0,
1:NASNER,,St-Nazaire Era,,42.66492600,2.99230090,,,1,,0,
1:PESTPI,,St-Pierre,,42.69690700,2.86602750,,,1,,0,
1:MASTAD,,Stade Carrère,,42.73045340,3.02372880,,,1,,0,
1:MASTAN,,Ste-Anne,,42.72696690,3.01262750,,,1,,0,
1:SOSTEU,,Ste-Eugénie,,42.68641090,2.81725250,,,1,,0,
1:MASTMA,,Ste-Marie,,42.72644420,3.01705380,,,1,,0,
1:MASTMP,,Ste-Marie Plage,,42.72521960,3.03556080,,,1,,0,
1:SASUDR,,Sud Roussillon,,42.65789020,2.92715290,,,1,,0,
1:PESEJO,,Séjourné,,42.69688410,2.92308460,,,1,,0,
1:BATAIL,,Taillade,,42.69865410,2.81799100,,,1,,0,
1:LBTAMA,,Tamaris,,42.77499950,3.02019810,,,1,,0,
1:TATAUT,,Tautavel,,42.81591440,2.74916510,,,1,,0,
1:PETECH,,Tech,,42.68626820,2.90389550,,,1,,0,
1:PETECN,,Tecnosud 1,,42.66584050,2.90572820,,,1,,0,
1:PETEC2,,Tecnosud 2,,42.66261000,2.90684320,,,1,,0,
1:BXTEMP,,Templiers,,42.74640560,2.81224520,,,1,,0,
1:CYBRUX,,Teresa Rebull,,42.67586700,2.94466050,,,1,,0,
1:CNTERR,,Terre Rousse,,42.70701400,2.98169010,,,1,,0,
1:LBTHAL,,Thalassa,,42.84108920,3.03810890,,,1,,0,
1:PETHAR,,Théâtre Archipel,,42.70092780,2.88920310,,,1,,0,
1:PETORC,,Torcatis,,42.70445060,2.89006300,,,1,,0,
1:TRTORR,,Torreilles,,42.75377650,2.99371220,,,1,,0,
1:TRPLAG,,Torreilles Plage,,42.76640890,3.03094140,,,1,,0,
1:PETORR,,Torremila 1,,42.73174600,2.87024400,,,1,,0,
1:TOTOUL,,Toulouges,,42.67104140,2.83182990,,,1,,0,
1:PETOUR,,Tourné,,42.66611290,2.89446850,,,1,,0,
1:POTRAV,,Traverse,,42.64095320,2.86684250,,,1,,0,
1:CATRIG,,Trignagues,,42.65975190,2.84360530,,,1,,0,
1:FETUIL,,Tuileries,,42.67956160,2.76436080,,,1,,0,
1:PETURI,,Turin,,42.69039720,2.85560630,,,1,,0,
1:LBTELE,,Téléski,,42.83761550,3.02623190,,,1,,0,
1:RIVALD,,Val d'Agly,,42.77814860,2.87485730,,,1,,0,
1:RAVALD,,Val des Vignes,,42.63179010,2.91672540,,,1,,0,
1:CYVALI,,Valiente,,42.69016070,2.93531370,,,1,,0,
1:PEVARI,,Variétés,,42.70248720,2.89414370,,,1,,0,
1:PEVAUB,,Vauban,,42.70101420,2.89215520,,,1,,0,
1:PEVERN,,Vernet Salanque,,42.71662880,2.90088560,,,1,,0,
1:CNVERT,,Vert Vallon,,42.69990530,2.99306990,,,1,,0,
1:PEVMAS,,Villa du Mas,,42.72619060,2.89460310,,,1,,0,
1:RIVILL,,Village Entreprises,,42.80268100,2.89132830,,,1,,0,
1:VSCEN,,Villelongue Centre,,42.72705640,2.98264770,,,1,,0,
1:PEVILL,,Villeneuve,,42.68580970,2.90194630,,,1,,0,
1:RAVILL,,Villeneuve de la R.,,42.63064010,2.91491740,,,1,,0,
1:VRVILL,,Villeneuve la Riv.,,42.69421000,2.80354480,,,1,,0,
1:VNVING,,Vingrau,,42.84778210,2.78034820,,,1,,0,
1:TRVIVA,,Vivaldi,,42.75270650,2.98819970,,,1,,0,
1:PEWILS,,Wilson,,42.70204730,2.89615210,,,1,,0,
1:ESZONE,,Zone Industrielle,,42.71753140,2.84962140,,,1,,0,
1:CNZEP,,Zéphir,,42.69938740,3.02424200,,,1,,0,
0:PEabbe2,,Abbé Pierre,,42.69057680,2.87463220,,,0,1:PEABBE,0,3
0:PEabbe3,,Abbé Pierre,,42.69122660,2.87640350,,,0,1:PEABBE,0,3
0:CAabri1,,Abricotiers,,42.65329740,2.83498310,,,0,1:CAABRI,0,3
0:LSagly3,,Agly,,42.76693300,2.98698300,,,0,1:LSAGLY,0,3
0:LSagly4,,Agly,,42.76694900,2.98708000,,,0,1:LSAGLY,0,3
0:TOalbe1,,Albères,,42.66663360,2.83228730,,,0,1:TOALBE,0,3
0:TOalbe2,,Albères,,42.66640290,2.83236830,,,0,1:TOALBE,0,3
0:CNaliz1,,Alizés,,42.70280080,3.02268840,,,0,1:CNALIZ,0,3
0:CNaliz2,,Alizés,,42.70313640,3.02275180,,,0,1:CNALIZ,0,3
0:ESaloe1,,Aloès,,42.70742800,2.83564310,,,0,1:ESALOE,0,3
0:ESaloe2,,Aloès,,42.70758050,2.83555770,,,0,1:ESALOE,0,3
0:MAaloe1,,Aloès,,42.73418800,3.02943320,,,0,1:MAALOE,0,3
0:MAaloe2,,Aloès,,42.73418900,3.02958300,,,0,1:MAALOE,0,3
0:MAaloe3,,Aloès,,42.73392370,3.02871340,,,0,1:MAALOE,0,3
0:PEamar1,,Amarell,,42.69587880,2.93053470,,,0,1:PEAMAR,0,3
0:CYampe1,,Ampère,,42.68887060,2.91987610,,,0,1:CYAMPE,0,3
0:CYampe2,,Ampère,,42.68865590,2.91993740,,,0,1:CYAMPE,0,3
0:LBanni1,,Annibal,,42.80588140,3.03718180,,,0,1:LBANNI,0,3
0:LBanni2,,Annibal,,42.80549990,3.03737190,,,0,1:LBANNI,0,3
0:LSanni1,,Annibal,,42.77189580,3.00665370,,,0,1:LSANNI,0,3
0:LSanni2,,Annibal,,42.77173230,3.00662210,,,0,1:LSANNI,0,3
0:BOarag2,,Arago,,42.73355500,2.93373540,,,0,1:BOARAG,0,3
0:BOarag3,,Arago,,42.73372350,2.93410020,,,0,1:BOARAG,0,3
0:ESarag1,,Arago,,42.70882420,2.84395960,,,0,1:ESARAG,0,3
0:ESarag2,,Arago,,42.70862190,2.84328180,,,0,1:ESARAG,0,3
0:PEarag2,,Arago,,42.69855120,2.89220120,,,0,1:PEARAG,0,3
0:LSaram1,,Aramon,,42.77597800,2.98339130,,,0,1:LSARAM,0,3
0:LSaram2,,Aramon,,42.77613830,2.98342970,,,0,1:LSARAM,0,3
0:POarbo1,,Arbousiers,,42.64592430,2.87044130,,,0,1:POARBO,0,3
0:PEarca1,,Arcades,,42.67876430,2.88121390,,,0,1:PEARCA,0,3
0:PEarca2,,Arcades,,42.67884050,2.88140370,,,0,1:PEARCA,0,3
0:PEarch1,,Archers,,42.69496150,2.89298840,,,0,1:PEARCH,0,3
0:PEarch2,,Archers,,42.69491580,2.89285610,,,0,1:PEARCH,0,3
0:PEarde1,,Ardennes,,42.68765260,2.89948750,,,0,1:PEARDE,0,3
0:PEarde2,,Ardennes,,42.68769070,2.89966490,,,0,1:PEARDE,0,3
0:PEarde3,,Ardennes,Déviation,42.68728400,2.90056700,,,0,1:PEARDE,0,3
0:RIarna1,,Arnaud de Villeneuve,,42.76863090,2.87661410,,,0,1:RIARNA,0,3
0:RIarna2,,Arnaud de Villeneuve,,42.76854310,2.87666460,,,0,1:RIARNA,0,3
0:CGarqu1,,Arque,,42.74560990,2.62622000,,,0,1:CGARQU,0,3
0:PEaren1,,Arène,,42.68951420,2.89274450,,,0,1:PEAREN,0,3
0:PEaren2,,Arène,,42.68931440,2.89314070,,,0,1:PEAREN,0,3
0:PEarge1,,Avenue d'Argelès,,42.67885070,2.91188110,,,0,1:PEARGE,0,3
0:PEarge2,,Avenue d'Argelès,,42.67843570,2.91251750,,,0,1:PEARGE,0,3
0:POaven1,,Avenue du Roussi,,42.64102170,2.87399670,,,0,1:POAVEN,0,3
0:POaven2,,Avenue du Roussi,,42.64120860,2.87465430,,,0,1:POAVEN,0,3
0:CNaven1,,Avenue du Roussillon,,42.69789500,3.03046200,,,0,1:CNAVEN,0,3
0:CNaven2,,Avenue du Roussillon,,42.69781110,3.03083210,,,0,1:CNAVEN,0,3
0:PEavia1,,Aviateurs,,42.68476870,2.88914730,,,0,1:PEAVIA,0,3
0:PEavia2,,Aviateurs,,42.68486020,2.88921400,,,0,1:PEAVIA,0,3
0:LSavia1,,Aviation,,42.77479800,2.98980300,,,0,1:LSAVIA,0,3
0:LSavia2,,Aviation,,42.77473900,2.99036600,,,0,1:LSAVIA,0,3
0:PEaero5,,Aérodrome,,42.72406770,2.88262200,,,0,1:PEAERD,0,3
0:PEaero6,,Aérodrome,,42.72404470,2.88275390,,,0,1:PEAERD,0,3
0:PEaero1,,Aéroport,,42.74085620,2.86704180,,,0,1:PEAERO,0,3
0:PEbacc1,,Bacchus,,42.68706890,2.88736150,,,0,1:PEBACC,0,3
0:PEbacc2,,Bacchus,,42.68761390,2.88705520,,,0,1:PEBACC,0,3
0:PEbada1,,Badalona,,42.66547390,2.87885330,,,0,1:PEBADA,0,3
0:PEbada2,,Badalona,,42.66574100,2.87892650,,,0,1:PEBADA,0,3
0:BAbaho1,,Baho,,42.70145800,2.82518980,,,0,1:BABAHO,0,3
0:BAbaho2,,Baho,,42.70140830,2.82484410,,,0,1:BABAHO,0,3
0:PEbail1,,Baillat,,42.67208100,2.88988230,,,0,1:PEBAIL,0,3
0:PEbail2,,Baillat,,42.67213060,2.89143300,,,0,1:PEBAIL,0,3
0:PEbaiy1,,Baillaury,,42.67874910,2.90806960,,,0,1:PEBAIY,0,3
0:PEbaiy2,,Baillaury,,42.67852770,2.90818480,,,0,1:PEBAIY,0,3
0:TRbaix1,,Baixarade,,42.75307070,2.99230000,,,0,1:TRBAIX,0,3
0:TRbaix2,,Baixarade,,42.75303650,2.99224090,,,0,1:TRBAIX,0,3
0:BXbaix1,,Baixas,,42.75327050,2.81738100,,,0,1:BXBAIX,0,3
0:BXbaix2,,Baixas,,42.75365470,2.81677080,,,0,1:BXBAIX,0,3
0:ESbaix1,,Baixas,,42.71814090,2.84112300,,,0,1:ESBAIX,0,3
0:ESbaix2,,Baixas,,42.71804390,2.84168000,,,0,1:ESBAIX,0,3
0:BXstad1,,Baixas - Stade,,42.75411630,2.81389590,,,0,1:BXSTAD,0,3
0:BXstad2,,Baixas - Stade,,42.75415270,2.81408630,,,0,1:BXSTAD,0,3
0:CYbajo1,,Bajoles,,42.68064400,2.94494000,,,0,1:CYBAJO,0,3
0:CYbajo2,,Bajoles,,42.68088200,2.94496600,,,0,1:CYBAJO,0,3
0:TObalt1,,Baltaza,,42.66498170,2.83224850,,,0,1:TOBALT,0,3
0:TObalt2,,Baltaza,,42.66510760,2.83232020,,,0,1:TOBALT,0,3
0:PEbara2,,Barande,,42.71088640,2.89011510,,,0,1:PEBARA,0,3
0:PEbarc1,,Barcarolles,,42.68796370,2.90809600,,,0,1:PEBARC,0,3
0:PEbarc2,,Barcarolles,,42.68817810,2.90801400,,,0,1:PEBARC,0,3
0:PEbarr1,,Barrère,,42.67891690,2.89159490,,,0,1:PEBARR,0,3
0:PEbarr2,,Barrère,,42.67794030,2.89144800,,,0,1:PEBARR,0,3
0:PEbas11,,Bas Vernet 1,,42.70540240,2.88097050,,,0,1:PEBAV1,0,3
0:PEbas12,,Bas Vernet 1,,42.70602040,2.88056350,,,0,1:PEBAV1,0,3
0:PEbas31,,Bas Vernet 3,,42.70622630,2.87779140,,,0,1:PEBAV3,0,3
0:PEbas32,,Bas Vernet 3,,42.70625310,2.87790510,,,0,1:PEBAV3,0,3
0:PEbas41,,Bas Vernet 4,,42.70258330,2.87875840,,,0,1:PEBAV4,0,3
0:PEbas42,,Bas Vernet 4,,42.70334630,2.87837340,,,0,1:PEBAV4,0,3
0:PEbate1,,Batère,,42.68481060,2.90522550,,,0,1:PEBATE,0,3
0:PEbate2,,Batère,,42.68478770,2.90530230,,,0,1:PEBATE,0,3
0:CYbecq1,,Becquerel,,42.68990350,2.92406120,,,0,1:CYBECQ,0,3
0:CYbecq2,,Becquerel,,42.68989520,2.92413200,,,0,1:CYBECQ,0,3
0:PEbelf1,,Belfort,,42.68933620,2.88118030,,,0,1:PEBELF,0,3
0:PEbelf2,,Belfort,,42.68857190,2.88129190,,,0,1:PEBELF,0,3
0:PEbert1,,Berta,,42.72719970,2.90118940,,,0,1:PEBERT,0,3
0:PEbert2,,Berta,,42.72714510,2.90128660,,,0,1:PEBERT,0,3
0:CNbfm11,,BFM,,42.68366610,3.03441070,,,0,1:CNBFM2,0,3
0:CNbfm22,,BFM,,42.68338000,3.03424780,,,0,1:CNBFM2,0,3
0:PEbois1,,Bois des Pins,,42.65983950,2.88435030,,,0,1:PEBOIS,0,3
0:BOnord1,,Bompas Nord,,42.73521600,2.93919560,,,0,1:BONORD,0,3
0:BOnord2,,Bompas Nord,,42.73532800,2.93878840,,,0,1:BONORD,0,3
0:PEbons1,,Bon Secours,,42.69179920,2.88317780,,,0,1:PEBONS,0,3
0:PEbons2,,Bon Secours,,42.69179140,2.88340950,,,0,1:PEBONS,0,3
0:PEbouc1,,Boucher,,42.69646070,2.90740900,,,0,1:PEBOUC,0,3
0:PEbouc2,,Boucher,,42.69632720,2.90699890,,,0,1:PEBOUC,0,3
0:PEbour1,,Bourrat,,42.70121000,2.90102860,,,0,1:PEBOUR,0,3
0:PEbour2,,Bourrat,,42.70111840,2.90111800,,,0,1:PEBOUR,0,3
0:PEbous1,,Boussiron,,42.69773100,2.92899800,,,0,1:PEBOUS,0,3
0:PEbous2,,Boussiron,,42.69695300,2.92952800,,,0,1:PEBOUS,0,3
0:PEbret1,,Bretonneau,,42.66562650,2.88692090,,,0,1:PEBRET,0,3
0:PEbret2,,Bretonneau,,42.66547010,2.88628050,,,0,1:PEBRET,0,3
0:PEbria2,,Briand,,42.69485120,2.90114620,,,0,1:PEBRIA,0,3
0:PEbria3,,Briand,,42.69471760,2.90119000,,,0,1:PEBRIA,0,3
0:PEbroa1,,Broadway,,42.68680950,2.90641550,,,0,1:PEBROA,0,3
0:PEbroa2,,Broadway,,42.68726720,2.90601850,,,0,1:PEBROA,0,3
0:PEbrou1,,Broussais,,42.67044440,2.89039420,,,0,1:PEBROU,0,3
0:PEbrou2,,Broussais,,42.67027280,2.89030120,,,0,1:PEBROU,0,3
0:PEbrut1,,Brutus,,42.72250340,2.88652260,,,0,1:PEBRUT,0,3
0:PEbrut2,,Brutus,,42.72289160,2.88671190,,,0,1:PEBRUT,0,3
0:PEbrux1,,Bruxelles,,42.68880080,2.84952040,,,0,1:PEBRUX,0,3
0:PEbrux2,,Bruxelles,,42.68775180,2.84880040,,,0,1:PEBRUX,0,3
0:TAbyrr1,,Byrrh,,42.81425000,2.73783000,,,0,1:TABYRR,0,3
0:TAbyrr2,,Byrrh,,42.81457130,2.73896720,,,0,1:TABYRR,0,3
0:PEc.cc1,,C.C. Porte d'Espagne,,42.66878570,2.87848250,,,0,1:PECCPE,0,3
0:PEc.cc2,,C.C. Porte d'Espagne,,42.66881360,2.87847240,,,0,1:PECCPE,0,3
0:CYcab11,,Cabestany,,42.67990590,2.93478820,,,0,1:CYCAB1,0,3
0:CYcab22,,Cabestany,,42.67966990,2.93523000,,,0,1:CYCAB2,0,3
0:CYcabe1,,Cabestany,Devant Gendarmerie,42.67990020,2.93479490,,,0,1:CYCABE,0,3
0:CYcabe3,,Cabestany,,42.67985970,2.93557880,,,0,1:CYCABE,0,3
0:PEcabr1,,Cabrit,,42.69701430,2.88239630,,,0,1:PECABR,0,3
0:CCcalv1,,Calce Village,,42.75869770,2.75439830,,,0,1:CCCALV,0,3
0:RIcami1,,Cami de Vingrau,,42.77695620,2.87073290,,,0,1:RICAMI,0,3
0:RIcami2,,Cami de Vingrau,,42.77691170,2.87124790,,,0,1:RICAMI,0,3
0:CYcami1,,Camille Claudel,,42.68891880,2.93850080,,,0,1:CYCAMI,0,3
0:CYcami2,,Camille Claudel,,42.68870770,2.93820580,,,0,1:CYCAMI,0,3
0:MAcamp1,,Camp l'Oliu,,42.72848130,3.02099200,,,0,1:MACAMP,0,3
0:MAcamp2,,Camp l'Oliu,,42.72845080,3.02106240,,,0,1:MACAMP,0,3
0:CAcamp1,,Campagne,,42.65596000,2.83654380,,,0,1:CACAMP,0,3
0:CAcamp2,,Campagne,,42.65515020,2.83658720,,,0,1:CACAMP,0,3
0:NAcamp1,,Camping,,42.67210390,2.98927900,,,0,1:NACAMP,0,3
0:NAcamp2,,Camping,,42.67204660,2.98928570,,,0,1:NACAMP,0,3
0:PEcamp1,,Campus,,42.68302150,2.90182730,,,0,1:PECAMP,0,3
0:PEcamp2,,Campus,,42.68324310,2.90191810,,,0,1:PECAMP,0,3
0:PEcamu1,,Camus,,42.69058260,2.90953630,,,0,1:PECAMU,0,3
0:PEcamu2,,Camus,,42.69050990,2.90948770,,,0,1:PECAMU,0,3
0:CNcand1,,Candelles,,42.69514850,3.02788780,,,0,1:CNCAND,0,3
0:CNcand2,,Candelles,,42.69503770,3.02803420,,,0,1:CNCAND,0,3
0:CNcent4,,Canet CC,,42.69990550,3.02218470,,,0,1:CNCCOM,0,3
0:CNcpla1,,Canet Plage,,42.69650640,3.03303790,,,0,1:CNCPLA,0,3
0:CNcpla2,,Canet Plage,,42.69684970,3.03299430,,,0,1:CNCPLA,0,3
0:CNcpla3,,Canet Plage,Déviation,42.69612840,3.03139040,,,0,1:CNCPLA,0,3
0:CNcsud1,,Canet Sud,,42.67778780,3.03111320,,,0,1:CNCSU1,0,3
0:CNcsud2,,Canet Sud,,42.67776870,3.03090070,,,0,1:CNCSU2,0,3
0:CNcvil1,,Canet Village,,42.70486830,3.00516990,,,0,1:CNCVIL,0,3
0:CNcvil2,,Canet Village,,42.70464320,3.00482200,,,0,1:CNCVIL,0,3
0:FEcani1,,Canigou,,42.68192670,2.73735190,,,0,1:FECANI,0,3
0:FEcani2,,Canigou,,42.68172830,2.73757390,,,0,1:FECANI,0,3
0:RAcani1,,Canigou,,42.62565110,2.92105160,,,0,1:RACANI,0,3
0:SAcani1,,Canigou,,42.65258780,2.94506430,,,0,1:SACANI,0,3
0:SAcani2,,Canigou,,42.65265260,2.94506260,,,0,1:SACANI,0,3
0:CAcano1,,Canohès,,42.65158070,2.83176610,,,0,1:CACANO,0,3
0:PEcant1,,Canteroux,,42.67637360,2.88979520,,,0,1:PECANT,0,3
0:PEcant2,,Canteroux,,42.67665090,2.89036060,,,0,1:PECANT,0,3
0:LBcapc,,Cap Coudalère,,42.81532330,3.02199760,,,0,1:LBCAPC,0,3
0:RIcapr1,,Cap Roussillon,,42.77570010,2.90878160,,,0,1:RICAPR,0,3
0:RIcapr2,,Cap Roussillon,,42.77550130,2.90887050,,,0,1:RICAPR,0,3
0:NAstna1,,Cap Sud,,42.66630170,2.98515920,,,0,1:NASTNA,0,3
0:NAstna2,,Cap Sud,,42.66627870,2.98489670,,,0,1:NASTNA,0,3
0:CAcapu2,,Capucines,,42.65705110,2.83499930,,,0,1:CACAPU,0,3
0:CAcara1,,Caratg,,42.64251300,2.83604580,,,0,1:CACARA,0,3
0:CAcari1,,Carignans,,42.64932570,2.83559380,,,0,1:CACARI,0,3
0:VScarx1,,Carxofe,,42.72639070,2.97489380,,,0,1:VSCARX,0,3
0:VScarx2,,Carxofe,,42.72632980,2.97532300,,,0,1:VSCARX,0,3
0:SAcase1,,Casenobe,,42.65291600,2.94967790,,,0,1:SACASE,0,3
0:SAcase2,,Casenobe,,42.65298830,2.94962980,,,0,1:SACASE,0,3
0:CPcase1,,Cases-de-Pène,,42.77890770,2.79003240,,,0,1:CPCASP,0,3
0:CPcase2,,Cases-de-Pène,,42.77881240,2.78988030,,,0,1:CPCASP,0,3
0:CGcass1,,Cassagnes,,42.73929590,2.61143950,,,0,1:CGCASS,0,3
0:PEcass1,,Cassanyes,,42.69783400,2.90432000,,,0,1:PECASS,0,3
0:PEcass2,,Cassanyes,,42.69762040,2.90396170,,,0,1:PECASS,0,3
0:PYcass1,,Cassanyes,,42.75471500,2.85467550,,,0,1:PYCASS,0,3
0:PEcsin1,,Cassin,,42.68119010,2.89519120,,,0,1:PECSIN,0,3
0:PEcsin2,,Cassin,,42.68128140,2.89498840,,,0,1:PECSIN,0,3
0:PEcast1,,Castillet,,42.70085610,2.89395460,,,0,1:PECAST,0,3
0:PEcast2,,Castillet,,42.70109510,2.89395920,,,0,1:PECAST,0,3
0:PEcbra1,,Catalogne Brasserie,,42.69943600,2.88869070,,,0,1:PECBRA,0,3
0:PEcbra2,,Catalogne Brasserie,,42.69909980,2.88837610,,,0,1:PECBRA,0,3
0:PEcjea2,,Catalogne J. Violet,,42.69810490,2.88813140,,,0,1:PECJVI,0,3
0:PEcptc2,,Catalogne Pt Chaud,,42.69819250,2.88880090,,,0,1:PECPTC,0,3
0:PEcsul1,,Catalogne rue Sully,,42.69805520,2.88922430,,,0,1:PECSUL,0,3
0:PEcsul2,,Catalogne rue Sully,,42.69813150,2.88927480,,,0,1:PECSUL,0,3
0:POcave1,,Cave,,42.63833240,2.87357070,,,0,1:POCAVE,0,3
0:POcave2,,Cave,,42.63817000,2.87357940,,,0,1:POCAVE,0,3
0:BXcayr1,,Cayrol,,42.75132430,2.81142900,,,0,1:BXCAYR,0,3
0:BXcayr2,,Cayrol,,42.75177210,2.81147100,,,0,1:BXCAYR,0,3
0:PZcent1,,Centrale d'Achat,,42.69931790,2.77716590,,,0,1:PZCENT,0,3
0:PZcent2,,Centrale d'Achat,,42.69927220,2.77682020,,,0,1:PZCENT,0,3
0:POcent1,,Centre Ancien,,42.63699780,2.86788060,,,0,1:POCENT,0,3
0:BOccom1,,Centre Commercial,,42.72160140,2.93213730,,,0,1:BOCCOM,0,3
0:BOccom2,,Centre Commercial,,42.72205340,2.93225340,,,0,1:BOCCOM,0,3
0:BOccom3,,Centre Commercial,,42.72115700,2.93311800,,,0,1:BOCCOM,0,3
0:BOccom4,,Centre Commercial,,42.72128250,2.93277970,,,0,1:BOCCOM,0,3
0:RIcent1,,Centre Commercial,,42.77518880,2.91585090,,,0,1:RICCOM,0,3
0:RIcent2,,Centre Commercial,,42.77518030,2.91561750,,,0,1:RICCOM,0,3
0:PZccul1,,Centre Culturel,,42.69587330,2.76922200,,,0,1:PZCCUL,0,3
0:PZccul2,,Centre Culturel,,42.69583120,2.76856160,,,0,1:PZCCUL,0,3
0:TAcent1,,Centre de Vacances,,42.81779630,2.74144810,,,0,1:TACENT,0,3
0:TAcent2,,Centre de Vacances,,42.81778480,2.74139100,,,0,1:TACENT,0,3
0:RAcerd1,,Cerdagne,,42.63541400,2.91989640,,,0,1:RACERD,0,3
0:RAcerd2,,Cerdagne,,42.63546370,2.91992620,,,0,1:RACERD,0,3
0:SAresi1,,Cerdagne,,42.65682480,2.92904830,,,0,1:SARESI,0,3
0:RAcime1,,Chapelle,,42.63428870,2.92079620,,,0,1:RACIME,0,3
0:RAcime2,,Chapelle,,42.63413240,2.92101410,,,0,1:RACIME,0,3
0:BOchar1,,Charrette,,42.72176350,2.92906140,,,0,1:BOCHAR,0,3
0:BOchar2,,Charrette,,42.72153850,2.92865160,,,0,1:BOCHAR,0,3
0:SOchat1,,Chateaubriand,,42.68144230,2.79098200,,,0,1:SOCHAT,0,3
0:SOchat2,,Chateaubriand,,42.68146510,2.79183360,,,0,1:SOCHAT,0,3
0:PEchau1,,Chauvet,,42.68873980,2.90383740,,,0,1:PECHAU,0,3
0:PEchau2,,Chauvet,,42.68904110,2.90365220,,,0,1:PECHAU,0,3
0:PEchef1,,Chefdebien,,42.68327330,2.88531660,,,0,1:PECHEF,0,3
0:EAchem1,,Chemin d'Estagel,,42.77517310,2.83666780,,,0,1:EACHEM,0,3
0:EAchem2,,Chemin d'Estagel,,42.77513500,2.83659530,,,0,1:EACHEM,0,3
0:PEchev1,,Chevreul,,42.69157030,2.90406750,,,0,1:PECHEV,0,3
0:PEchev2,,Chevreul,,42.69229510,2.90389610,,,0,1:PECHEV,0,3
0:PEchoc1,,Chocolaterie,,42.67947010,2.85471770,,,0,1:PECHOC,0,3
0:PEchoc2,,Chocolaterie,,42.67916490,2.85389900,,,0,1:PECHOC,0,3
0:RIchre1,,Chrétien,,42.77445600,2.91042480,,,0,1:RICHRE,0,3
0:RIchre2,,Chrétien,,42.77449420,2.91035390,,,0,1:RICHRE,0,3
0:POchat1,,Château d'Eau,,42.63812870,2.86666340,,,0,1:POCHAT,0,3
0:PEchat1,,Château Roussillon,,42.70418930,2.94403480,,,0,1:PECHAT,0,3
0:PEchat2,,Château Roussillon,,42.70391460,2.94491430,,,0,1:PECHAT,0,3
0:SOchen1,,Chênes Verts,,42.68136970,2.78485040,,,0,1:SOCHEN,0,3
0:SOchen2,,Chênes Verts,,42.68131250,2.78498170,,,0,1:SOCHEN,0,3
0:BOcime1,,Cimetière,,42.73442630,2.93631290,,,0,1:BOCIME,0,3
0:BOcime2,,Cimetière,,42.73454510,2.93679890,,,0,1:BOCIME,0,3
0:EScime1,,Cimetière,,42.70947650,2.85005740,,,0,1:ESCIME,0,3
0:EScime2,,Cimetière,,42.70939640,2.84942940,,,0,1:ESCIME,0,3
0:PEcims1,,Cimetière Sud,,42.66492490,2.86606740,,,0,1:PECIMS,0,3
0:PEcita1,,Citadelle,,42.69398110,2.89309290,,,0,1:PECITA,0,3
0:PEcita2,,Citadelle,,42.69388960,2.89297010,,,0,1:PECITA,0,3
0:CNcito1,,Citoyen,,42.70474620,3.01192210,,,0,1:CNCITO,0,3
0:PEcsta1,,Cité St-Assiscle,,42.68989180,2.86773060,,,0,1:PECSTA,0,3
0:PEcite1,,Cité Universitaire,,42.67893850,2.90046950,,,0,1:PECITE,0,3
0:PEcite2,,Cité Universitaire,,42.67918160,2.89996420,,,0,1:PECITE,0,3
0:TOclai1,,Clairfont,,42.66574850,2.83717320,,,0,1:TOCLAI,0,3
0:TOclai2,,Clairfont,,42.66577910,2.83709530,,,0,1:TOCLAI,0,3
0:PEclau1,,Claude Bernard,,42.70362850,2.90287680,,,0,1:PECLAU,0,3
0:PEclau2,,Claude Bernard,,42.70464710,2.90213440,,,0,1:PECLAU,0,3
0:PEcsim1,,Claude Simon,,42.69950100,2.94304940,,,0,1:PECSIM,0,3
0:PEcsim2,,Claude Simon,,42.69919970,2.94283060,,,0,1:PECSIM,0,3
0:LSclem1,,Clemenceau,,42.76819990,2.98185090,,,0,1:LSCLEM,0,3
0:LSclem2,,Clemenceau,,42.76816560,2.98181030,,,0,1:LSCLEM,0,3
0:PEclem1,,Clemenceau,,42.70037150,2.88979290,,,0,1:PECLEM,0,3
0:PEclem2,,Clemenceau,,42.70038950,2.89017950,,,0,1:PECLEM,0,3
0:PEcmut1,,Clinique Mutualiste,,42.72705320,2.87673900,,,0,1:PECMUT,0,3
0:ESclin1,,Cliniques,,42.72135150,2.84756520,,,0,1:ESCLIN,0,3
0:ESclin2,,Cliniques,,42.72142030,2.84769250,,,0,1:ESCLIN,0,3
0:PEclod1,,Clodion,,42.70220950,2.88281630,,,0,1:PECLOD,0,3
0:PEclod2,,Clodion,,42.70217890,2.88236210,,,0,1:PECLOD,0,3
0:PEcban2,,Clos-Banet,,42.69877610,2.93015410,,,0,1:PECBAN,0,3
0:PEclba2,,Clos-Banet,,42.69877610,2.93015410,,,0,1:PECBAN,0,3
0:PEclos1,,Clos-Banet,,42.69918060,2.92816400,,,0,1:PECBAN,0,3
0:PEcoli1,,Collioure,,42.68368800,2.90917800,,,0,1:PECOLI,0,3
0:PEcoli2,,Collioure,,42.68429290,2.90911500,,,0,1:PECOLI,0,3
0:CNcoll1,,Collège,,42.70612340,2.99782350,,,0,1:CNCOLL,0,3
0:CNcoll2,,Collège,,42.70589450,2.99885700,,,0,1:CNCOLL,0,3
0:EScoll1,,Collège,,42.70769880,2.84110040,,,0,1:ESCOLL,0,3
0:EScoll2,,Collège,,42.70798870,2.84167030,,,0,1:ESCOLL,0,3
0:ELcoll1,,Collège Estagel,,42.77079370,2.69518550,,,0,1:ELCOLL,0,3
0:RIcoll1,,Collège Joffre,,42.76717580,2.87904090,,,0,1:RICOLL,0,3
0:TOcoll1,,Collège Mitterrand,,42.66595070,2.84112020,,,0,1:TOCOLL,0,3
0:TOcoll2,,Collège Mitterrand,,42.66592020,2.84136870,,,0,1:TOCOLL,0,3
0:PEcoll1,,Collège Pons,,42.71640780,2.88866350,,,0,1:PECOLL,0,3
0:PEcoll2,,Collège Pons,,42.71652600,2.88893560,,,0,1:PECOLL,0,3
0:CAcolo1,,Colomina,,42.66339870,2.84408810,,,0,1:CACOLO,0,3
0:CAcolo2,,Colomina,,42.66374210,2.84425310,,,0,1:CACOLO,0,3
0:ESconf1,,Conflent,,42.71169650,2.83270000,,,0,1:ESCONF,0,3
0:ESconf2,,Conflent,,42.71182240,2.83270480,,,0,1:ESCONF,0,3
0:PEconf1,,Conflent,,42.69882960,2.87719970,,,0,1:PECONF,0,3
0:PEconf2,,Conflent,,42.69887910,2.87839960,,,0,1:PECONF,0,3
0:POcons1,,Constellations,,42.63246920,2.86976360,,,0,1:POCONS,0,3
0:POcons2,,Constellations,,42.63223740,2.86928460,,,0,1:POCONS,0,3
0:PEcoqu1,,Coquelicots,,42.70181270,2.90441940,,,0,1:PECOQU,0,3
0:PEcoqu2,,Coquelicots,,42.70166390,2.90471080,,,0,1:PECOQU,0,3
0:CNcoqu1,,Coquillages,,42.68401340,3.03110390,,,0,1:CNCOQU,0,3
0:CNcoqu2,,Coquillages,,42.68458930,3.03115440,,,0,1:CNCOQU,0,3
0:LBcorb1,,Corbières,,42.78529360,3.03398090,,,0,1:LBCORB,0,3
0:LBcorb2,,Corbières,,42.78565980,3.03435420,,,0,1:LBCORB,0,3
0:PEcorv1,,Corvisart,,42.66583240,2.89036800,,,0,1:PECORV,0,3
0:PEcorv2,,Corvisart,,42.66616810,2.89060660,,,0,1:PECORV,0,3
0:PEcost1,,Costa Brava,,42.66123570,2.88012030,,,0,1:PECOST,0,3
0:PEcost2,,Costa Brava,,42.66144940,2.88016990,,,0,1:PECOST,0,3
0:LBcoud1,,Coudalère,,42.81508250,3.02899410,,,0,1:LBCOUD,0,3
0:LBcoud2,,Coudalère,,42.81510160,3.02908590,,,0,1:LBCOUD,0,3
0:CNcroi1,,Croix du sud,,42.68901430,3.03227970,,,0,1:CNCROI,0,3
0:CNcroi2,,Croix du sud,,42.68893050,3.03208590,,,0,1:CNCROI,0,3
0:SAcrou2,,Crouettes,,42.65864550,2.95004420,,,0,1:SACROU,0,3
0:Sacrou1,,Crouettes,,42.65867990,2.95010920,,,0,1:SACROU,0,3
0:PEceret1,,Céret,,42.68535090,2.90527840,,,0,1:PECERE,0,3
0:CNcote1,,Côte-Radieuse,,42.67943190,3.03184440,,,0,1:CNCOTE,0,3
0:CNcote2,,Côte-Radieuse,,42.67935550,3.03165080,,,0,1:CNCOTE,0,3
0:PEcote1,,Côte-Radieuse,,42.67480090,2.90470030,,,0,1:PECOTE,0,3
0:PEcote2,,Côte-Radieuse,,42.67493810,2.90485880,,,0,1:PECOTE,0,3
0:PEdahl1,,Dahlias,,42.70460890,2.90521790,,,0,1:PEDAHL,0,3
0:PEdahl2,,Dahlias,,42.70442920,2.90533090,,,0,1:PEDAHL,0,3
0:PEdalb1,,Dalbiez,,42.68524930,2.88210390,,,0,1:PEDALB,0,3
0:PEdalb2,,Dalbiez,,42.68610000,2.88208100,,,0,1:PEDALB,0,3
0:CYdega1,,De Gaulle,,42.68387970,2.94239070,,,0,1:CYDGAU,0,3
0:CYdega2,,De Gaulle,,42.68407060,2.94229410,,,0,1:CYDGAU,0,3
0:PEdega1,,Degas,,42.69247430,2.91248610,,,0,1:PEDEGA,0,3
0:PEdega2,,Degas,,42.69219970,2.91217970,,,0,1:PEDEGA,0,3
0:LSdela3,,Delacroix,,42.77544810,2.98539450,,,0,1:LSDELA,0,3
0:LSdela4,,Delacroix,,42.77534030,2.98545080,,,0,1:LSDELA,0,3
0:PEdepe1,,Depéret,,42.67613600,2.88065980,,,0,1:PEDEPE,0,3
0:PEdepe2,,Depéret,,42.67631140,2.88075760,,,0,1:PEDEPE,0,3
0:PEdera1,,Derain,,42.71861160,2.89527550,,,0,1:PEDERA,0,3
0:PEdera2,,Derain,,42.71828940,2.89553380,,,0,1:PEDERA,0,3
0:PEdesn1,,Desnoyés,,42.71123490,2.88451220,,,0,1:PEDESN,0,3
0:PEdesn2,,Desnoyés,,42.71120820,2.88466930,,,0,1:PEDESN,0,3
0:PEdesp1,,Desprès,,42.70861050,2.88587860,,,0,1:PEDESP,0,3
0:PEdesp2,,Desprès,,42.70925510,2.88571600,,,0,1:PEDESP,0,3
0:PEdide1,,Diderot,,42.70290230,2.90805960,,,0,1:PEDIDE,0,3
0:PEdide2,,Diderot,,42.70290770,2.90794690,,,0,1:PEDIDE,0,3
0:PEdioc1,,Diocèse,,42.68914030,2.84259960,,,0,1:PEDIOC,0,3
0:PEdioc2,,Diocèse,,42.68899920,2.84299990,,,0,1:PEDIOC,0,3
0:POdisc1,,Discobole,,42.64347090,2.86686050,,,0,1:PODISC,0,3
0:PEdomb1,,Dombasle,,42.68831250,2.87467580,,,0,1:PEDOMB,0,3
0:PEdomb2,,Dombasle,,42.68821720,2.87467620,,,0,1:PEDOMB,0,3
0:PEdond1,,Don du Sang,,42.72541760,2.89198760,,,0,1:PEDONS,0,3
0:PEdond2,,Don du Sang,,42.72537990,2.89210820,,,0,1:PEDONS,0,3
0:PEdonn1,,Donnezan,,42.67322920,2.88416840,,,0,1:PEDONN,0,3
0:PEdonn2,,Donnezan,,42.67335130,2.88485030,,,0,1:PEDONN,0,3
0:ESdroi1,,Droits de l'Homme,,42.71061710,2.85768650,,,0,1:ESDRHO,0,3
0:ESdroi2,,Droits de l'Homme,,42.71052170,2.85662630,,,0,1:ESDRHO,0,3
0:PEducu1,,Ducup,,42.69020080,2.83555030,,,0,1:PEDUCU,0,3
0:PEducu2,,Ducup,,42.69020080,2.83545040,,,0,1:PEDUCU,0,3
0:EAduve1,,Duverney,,42.77325060,2.84106590,,,0,1:EADUVE,0,3
0:EAduve2,,Duverney,,42.77322390,2.84104370,,,0,1:EADUVE,0,3
0:FAURdep,,Dépôt FAUR,,42.68932090,2.85134500,,,0,1:FAUR,0,3
0:Depot,,Dépôt Sankeo,,42.72270320,2.89785440,,,0,1:DEPOT,0,3
0:Scania,,Dépôt Sankeo,,42.72286960,2.89761990,,,0,1:DEPOT,0,3
0:PEeaux1,,Eaux Vives,,42.69427490,2.87203340,,,0,1:PEEAUX,0,3
0:PEeaux2,,Eaux Vives,,42.69418720,2.87169460,,,0,1:PEEAUX,0,3
0:BXecolS,,Ecole de Baixas,,42.75157950,2.81040850,,,0,1:BXECOL,0,3
0:CYecol2,,Ecole de Musique,,42.67560190,2.93730620,,,0,1:CYECOL,0,3
0:CYmusi1,,Ecole de Musique,,42.67581550,2.93711210,,,0,1:CYECOL,0,3
0:CPecoz1,,Ecozonia,,42.78256440,2.77904970,,,0,1:CPECOZ,0,3
0:PEelvi1,,El Vivès,,42.71380230,2.90122600,,,0,1:PEELVI,0,3
0:PEelvi2,,El Vivès,,42.71341080,2.90115420,,,0,1:PEELVI,0,3
0:SAeoli1,,Eolienne,,42.65551750,2.95760680,,,0,1:SAEOLI,0,3
0:SAeoli2,,Eolienne,,42.65541070,2.95734860,,,0,1:SAEOLI,0,3
0:RIespa1,,Espace Entreprises,,42.80330270,2.89693710,,,0,1:RIESPA,0,3
0:EAespi1,,Espira de l'Agly,,42.77738930,2.83003300,,,0,1:EAESPI,0,3
0:EAespi2,,Espira de l'Agly,,42.77743050,2.82969680,,,0,1:EAESPI,0,3
0:ELesta1,,Estagel,,42.77238840,2.69946500,,,0,1:ELESTA,0,3
0:ELesta2,,Estagel,,42.77249530,2.69934580,,,0,1:ELESTA,0,3
0:CNeuro1,,Europa,,42.70160680,3.01442910,,,0,1:CNEURO,0,3
0:CNeuro2,,Europa,,42.70170210,3.01496480,,,0,1:CNEURO,0,3
0:POeuro1,,Europe,,42.63933550,2.87138180,,,0,1:POEURO,0,3
0:POeuro2,,Europe,,42.63987720,2.87235690,,,0,1:POEURO,0,3
0:EVCdep,,Evasion Catalane,,42.61132690,2.97831100,,,0,1:EVC,0,3
0:BAevor1,,Evora,,42.70187760,2.81862310,,,0,1:BAEVOR,0,3
0:BAevor2,,Evora,,42.70193850,2.81857470,,,0,1:BAEVOR,0,3
0:CYfabr1,,Fabre,,42.67655930,2.93439910,,,0,1:CYFABR,0,3
0:CYfabr2,,Fabre,,42.67692950,2.93411140,,,0,1:CYFABR,0,3
0:CCfara2,,Faratjal,,42.75781250,2.75614190,,,0,1:CCFARA,0,3
0:PEfauc1,,Fauceille,,42.66967000,2.90493660,,,0,1:PEFAUC,0,3
0:PEfauc2,,Fauceille,,42.66971590,2.90510150,,,0,1:PEFAUC,0,3
0:PEfauv1,,Fauvelle,,42.68513100,2.86681680,,,0,1:PEFAUV,0,3
0:PEfauv2,,Fauvelle,,42.68510060,2.86698130,,,0,1:PEFAUV,0,3
0:CYfauv1,,Fauvettes,,42.68407790,2.93531500,,,0,1:CYFAUV,0,3
0:CYfauv2,,Fauvettes,,42.68427660,2.93519470,,,0,1:CYFAUV,0,3
0:RIfeno1,,Fenouil,,42.77945330,2.88204860,,,0,1:RIFENO,0,3
0:RIfeno2,,Fenouil,,42.77938840,2.88204190,,,0,1:RIFENO,0,3
0:MAfest1,,Festivités,,42.73046110,3.03560640,,,0,1:MAFEST,0,3
0:MAfest2,,Festivités,,42.73017870,3.03556040,,,0,1:MAFEST,0,3
0:CNfiga1,,Figarasse,,42.69982900,3.00170880,,,0,1:CNFIGA,0,3
0:CNfiga2,,Figarasse,,42.69979480,3.00165960,,,0,1:CNFIGA,0,3
0:PEflan1,,Flandres Dunkerque,,42.68552020,2.90599460,,,0,1:PEFLAN,0,3
0:PEflan2,,Flandres Dunkerque,,42.68582910,2.90632750,,,0,1:PEFLAN,0,3
0:CNflor1,,Floralies,,42.68932710,3.03194900,,,0,1:CNFLOR,0,3
0:CNflor2,,Floralies,,42.68937300,3.03189470,,,0,1:CNFLOR,0,3
0:LBflor1,,Floride,,42.77836600,3.02990220,,,0,1:LBFLOR,0,3
0:LBflor2,,Floride,,42.77870940,3.03037640,,,0,1:LBFLOR,0,3
0:PEfore1,,Forest,,42.68643940,2.86883740,,,0,1:PEFORE,0,3
0:PEfore2,,Forest,,42.68634020,2.86895610,,,0,1:PEFORE,0,3
0:PEform1,,Formation,,42.67499150,2.84917710,,,0,1:PEFORM,0,3
0:ESfore1,,Forêt,,42.71392060,2.83258890,,,0,1:ESFORE,0,3
0:ESfore2,,Forêt,,42.71374880,2.83272910,,,0,1:ESFORE,0,3
0:PEfoss1,,Fossa,,42.69265750,2.88550730,,,0,1:PEFOSS,0,3
0:PEfoss2,,Fossa,,42.69250460,2.88535950,,,0,1:PEFOSS,0,3
0:ESfour1,,Fournas,,42.71532820,2.83520360,,,0,1:ESFOUR,0,3
0:ESfour2,,Fournas,,42.71532810,2.83534290,,,0,1:ESFOUR,0,3
0:PEfour1,,Fourneyron,,42.68379960,2.86394550,,,0,1:PEFOUR,0,3
0:PEfour2,,Fourneyron,,42.68375770,2.86422820,,,0,1:PEFOUR,0,3
0:PEfrat1,,Fraternité,,42.73030840,2.87562040,,,0,1:PEFRAT,0,3
0:PEfrat2,,Fraternité,,42.73060220,2.87536410,,,0,1:PEFRAT,0,3
0:PEglio1,,Gare multimodale liO,,42.69502390,2.87915010,,,0,1:PEGLIO,0,3
0:PEgrou1,,Gare Routière,,42.70120160,2.88780030,,,0,1:PEGROU,0,3
0:PEcour1,,Gare SNCF,,42.69605670,2.88076890,,,0,1:PESNCC,0,3
0:PEsncf1,,Gare SNCF,,42.69666750,2.88014420,,,0,1:PESNCF,0,3
0:PEgare1,,Gare TGV,,42.69611740,2.87819080,,,0,1:PEGAR1,0,3
0:PEgare2,,Gare TGV,,42.69626400,2.87828740,,,0,1:PEGAR2,0,3
0:PEgare4,,Gare TGV,,42.69712000,2.87815500,,,0,1:PEGAR2,0,3
0:PEgarr1,,Garrigole,,42.69437410,2.86778930,,,0,1:PEGARR,0,3
0:PEgarr2,,Garrigole,,42.69438170,2.86855670,,,0,1:PEGARR,0,3
0:PEgaug1,,Gauguin,,42.71764160,2.88934380,,,0,1:PEGAUG,0,3
0:PEgaug2,,Gauguin,,42.71767930,2.88938960,,,0,1:PEGAUG,0,3
0:RIgcdr1,,Gd Circuit du Rouss.,,42.78014880,2.90882060,,,0,1:RIGCR,0,3
0:PEgend1,,Gendarmerie,,42.69445030,2.90415050,,,0,1:PEGEND,0,3
0:PEgend2,,Gendarmerie,,42.69409940,2.90398980,,,0,1:PEGEND,0,3
0:CYgene1,,Genêts,,42.67473590,2.94081310,,,0,1:CYGENE,0,3
0:CYgene2,,Genêts,,42.67457580,2.94151780,,,0,1:CYGENE,0,3
0:PEgerh1,,Gerhardt,,42.67616700,2.84375250,,,0,1:PEGERH,0,3
0:PEgerh2,,Gerhardt,,42.67621130,2.84440960,,,0,1:PEGERH,0,3
0:CYgerm1,,Germanor,,42.67329790,2.94452380,,,0,1:CYGERM,0,3
0:CYgerm2,,Germanor,,42.67330200,2.94463060,,,0,1:CYGERM,0,3
0:RIgine1,,Ginèbre,,42.77983470,2.87790130,,,0,1:RIGINE,0,3
0:RIgine2,,Ginèbre,,42.77977370,2.87789350,,,0,1:RIGINE,0,3
0:PEgira1,,Giral,,42.71521550,2.88834840,,,0,1:PEGIRA,0,3
0:PEgira2,,Giral,,42.71473820,2.88865170,,,0,1:PEGIRA,0,3
0:CNgran1,,Grand Large,,42.68686290,3.03177690,,,0,1:CNGRAN,0,3
0:CNgran2,,Grand Large,,42.68731310,3.03163820,,,0,1:CNGRAN,0,3
0:PEgran1,,Grande-Bretagne,,42.69869230,2.87602210,,,0,1:PEGRAN,0,3
0:PEgran2,,Grande-Bretagne,,42.69864650,2.87608500,,,0,1:PEGRAN,0,3
0:BOgran1,,Granja,,42.73313590,2.93921710,,,0,1:BOGRAN,0,3
0:BOgran2,,Granja,,42.73331320,2.93916880,,,0,1:BOGRAN,0,3
0:CAgren1,,Grenache,,42.64994600,2.83062700,,,0,1:CAGREN,0,3
0:CAgren2,,Grenache,,42.65003900,2.83099200,,,0,1:CAGREN,0,3
0:PEgmet1,,Guillaumet,,42.73077370,2.86889140,,,0,1:PEGMET,0,3
0:PEguil1,,Guillaut,,42.69077240,2.89363800,,,0,1:PEGUIL,0,3
0:PEguil2,,Guillaut,,42.69047550,2.89393690,,,0,1:PEGUIL,0,3
0:SOguym1,,Guy Malé,,42.68195330,2.79648140,,,0,1:SOGUYM,0,3
0:SOguym2,,Guy Malé,,42.68179310,2.79620930,,,0,1:SOGUYM,0,3
0:PEguyn1,,Guynemer,,42.68891400,2.90682050,,,0,1:PEGUYN,0,3
0:PEguyn2,,Guynemer,,42.68878730,2.90713470,,,0,1:PEGUYN,0,3
0:PEgero1,,Gérone,,42.66691930,2.88275150,,,0,1:PEGERO,0,3
0:BOhall1,,Halle aux Sports,,42.73434450,2.93076630,,,0,1:BOHALL,0,3
0:BOhall2,,Halle aux Sports,,42.73428010,2.93085870,,,0,1:BOHALL,0,3
0:PEhamb1,,Hambourg,,42.67856970,2.85164210,,,0,1:PEHAMB,0,3
0:CNhame1,,Hameau,,42.70645140,2.99237800,,,0,1:CNHAME,0,3
0:CNhame2,,Hameau,,42.70639420,2.99238470,,,0,1:CNHAME,0,3
0:PEhaut1,,Haut-Vernet,,42.72864150,2.88827900,,,0,1:PEHAUT,0,3
0:PEhaut2,,Haut-Vernet,,42.72852710,2.88843560,,,0,1:PEHAUT,0,3
0:CNherr1,,Herriot,,42.69133380,3.03204160,,,0,1:CNHERR,0,3
0:CNherr2,,Herriot,,42.69087220,3.03205710,,,0,1:CNHERR,0,3
0:PEhlms1,,HLM St-Louis,,42.70517150,2.89222180,,,0,1:PEHLM,0,3
0:PEhlms2,,HLM St-Louis,,42.70592850,2.89209530,,,0,1:PEHLM,0,3
0:LBhour1,,Hourtou,,42.79176510,3.03011810,,,0,1:LBHOUR,0,3
0:LBhour2,,Hourtou,,42.79184190,3.03013680,,,0,1:LBHOUR,0,3
0:PEhopi1,,Hôpital,,42.72585680,2.88750170,,,0,1:PEHOPI,0,3
0:PEhopi2,,Hôpital,,42.72540280,2.88745000,,,0,1:PEHOPI,0,3
0:PEhote2,,Hôtel de Police,,42.69948990,2.88351720,,,0,1:PEHOTE,0,3
0:CNhote1,,Hôtel de Ville,,42.70529090,3.00730380,,,0,1:CNHOTV,0,3
0:CNhote2,,Hôtel de Ville,,42.70518490,3.00686480,,,0,1:CNHOTV,0,3
0:SAhote1,,Hôtel de Ville,,42.65465550,2.95375940,,,0,1:SAHOTV,0,3
0:SAhote2,,Hôtel de Ville,,42.65473180,2.95371890,,,0,1:SAHOTV,0,3
0:SAhote3,,Hôtel de Ville,Déviation,42.65510500,2.95338600,,,0,1:SAHOTV,0,3
0:SAhote4,,Hôtel de Ville,Déviation,42.65569800,2.95317500,,,0,1:SAHOTV,0,3
0:CAiris1,,Iris,,42.64458680,2.83666400,,,0,1:CAIRIS,0,3
0:PEiut11,,IUT,,42.68321890,2.89529710,,,0,1:PEIUT,0,3
0:PEiut22,,IUT,,42.68345590,2.89566620,,,0,1:PEIUT,0,3
0:PTjard1,,Jardin Exotique,,42.62514870,2.81767800,,,0,1:PTJARD,0,3
0:PTjard2,,Jardin Exotique,,42.62480160,2.81935100,,,0,1:PTJARD,0,3
0:SOjean1,,Jean Jaurès,,42.68314440,2.80197250,,,0,1:SOJEAN,0,3
0:SOjean2,,Jean Jaurès,,42.68321390,2.80266130,,,0,1:SOJEAN,0,3
0:PEjean1,,Jean Moulin,,42.69607160,2.89916540,,,0,1:PEJMOU,0,3
0:PEjean2,,Jean Moulin,,42.69612490,2.89863750,,,0,1:PEJMOU,0,3
0:CYjean2,,Jean Zay,,42.68331910,2.94627710,,,0,1:CYJZAY,0,3
0:CYjzay1,,Jean Zay,,42.68355110,2.94744170,,,0,1:CYJZAY,0,3
0:TRjoff1,,Joffre,,42.75625690,2.99353990,,,0,1:TRJOFF,0,3
0:TRjoff2,,Joffre,,42.75596230,2.99295780,,,0,1:TRJOFF,0,3
0:PEjonq1,,Jonquère,,42.66389850,2.87955020,,,0,1:PEJONQ,0,3
0:PEjonq2,,Jonquère,,42.66397850,2.87972040,,,0,1:PEJONQ,0,3
0:PEjotg1,,Jotglars,,42.69453040,2.89019870,,,0,1:PEJOTG,0,3
0:PEjuga1,,Jugan,,42.67319480,2.90469240,,,0,1:PEJUGA,0,3
0:PEjuga2,,Jugan,,42.67283240,2.90481470,,,0,1:PEJUGA,0,3
0:PEjuin1,,Juin,,42.68811800,2.89712380,,,0,1:PEJUIN,0,3
0:PEjuin2,,Juin,,42.68836080,2.89625710,,,0,1:PEJUIN,0,3
0:TRjume1,,Jumelage,,42.75559990,2.99571060,,,0,1:TRJUME,0,3
0:TRjume2,,Jumelage,,42.75560370,2.99556640,,,0,1:TRJUME,0,3
0:PEkenn1,,Kennedy,,42.69023890,2.90184550,,,0,1:PEKENN,0,3
0:PEkenn2,,Kennedy,,42.69052880,2.90168240,,,0,1:PEKENN,0,3
0:TOlaba1,,La Basse,,42.67536160,2.83968570,,,0,1:TOLABA,0,3
0:TOlaba2,,La Basse,,42.67525480,2.83959080,,,0,1:TOLABA,0,3
0:PElabu1,,La Butte,,42.68692400,2.89565250,,,0,1:PELABU,0,3
0:PElabu2,,La Butte,,42.68716050,2.89567040,,,0,1:PELABU,0,3
0:PElach1,,La Chaumière,,42.69935990,2.91615370,,,0,1:PELACH,0,3
0:PElach2,,La Chaumière,,42.69969180,2.91870590,,,0,1:PELACH,0,3
0:PElalu1,,La Lunette,,42.68967820,2.89942970,,,0,1:PELALU,0,3
0:PElalu2,,La Lunette,,42.68956750,2.89964600,,,0,1:PELALU,0,3
0:BOlama1,,La Martine,,42.72645190,2.93583990,,,0,1:BOLAMA,0,3
0:BOlama2,,La Martine,,42.72634890,2.93597050,,,0,1:BOLAMA,0,3
0:PYlape1,,La Pépinière,,42.75487520,2.84865070,,,0,1:PYLAPE,0,3
0:PYlape2,,La Pépinière,,42.75497820,2.84842920,,,0,1:PYLAPE,0,3
0:TRlase1,,La Serre,,42.76315090,3.02244490,,,0,1:TRLASE,0,3
0:TRlase2,,La Serre,,42.76298510,3.02229330,,,0,1:TRLASE,0,3
0:LSlato1,,La Tourre,,42.77387610,3.01369900,,,0,1:LSLATO,0,3
0:LSlato2,,La Tourre,,42.77365480,3.01297090,,,0,1:LSLATO,0,3
0:RAlavi1,,La Vigie,,42.63734810,2.91858010,,,0,1:RALAVI,0,3
0:RAlavi2,,La Vigie,,42.63740920,2.91857820,,,0,1:RALAVI,0,3
0:TOlaca1,,Lacaze,,42.66842270,2.83186290,,,0,1:TOLACA,0,3
0:TOlaca2,,Lacaze,,42.66860570,2.83186200,,,0,1:TOLACA,0,3
0:PElaff1,,Laffon,,42.69023510,2.87990020,,,0,1:PELAFF,0,3
0:PElaff2,,Laffon,,42.69021990,2.87998060,,,0,1:PELAFF,0,3
0:PElala1,,Lalande,,42.70843110,2.89469690,,,0,1:PELALA,0,3
0:PElala4,,Lalande,,42.70826400,2.89459200,,,0,1:PELALA,0,3
0:BOlman1,,Lamans,,42.72565450,2.93207310,,,0,1:BOLMAN,0,3
0:BOlman2,,Lamans,,42.72583390,2.93215180,,,0,1:BOLMAN,0,3
0:PElamb3,,Lambert,,42.71111380,2.89883560,,,0,1:PELAMB,0,3
0:PElamb4,,Lambert,,42.71075360,2.89904310,,,0,1:PELAMB,0,3
0:PElvin1,,Langevin,,42.68756090,2.87155580,,,0,1:PELVIN,0,3
0:PElvin2,,Langevin,,42.68751140,2.87191510,,,0,1:PELVIN,0,3
0:PElang1,,Languedoc,,42.74092440,2.89196450,,,0,1:PELAN1,0,3
0:PElang2,,Languedoc,,42.74029690,2.89188400,,,0,1:PELAN2,0,3
0:PElang3,,Languedoc,,42.74066830,2.89200820,,,0,1:PELAN3,0,3
0:PElang4,,Languedoc,,42.74028400,2.89177500,,,0,1:PELAN1,0,3
0:CNlasb1,,Las Bigues,,42.70606990,3.01151710,,,0,1:CNLASB,0,3
0:CNlasb2,,Las Bigues,,42.70592190,3.01359820,,,0,1:CNLASB,0,3
0:CAlasc1,,Las Canals,,42.65690980,2.83805780,,,0,1:CALASC,0,3
0:CAlasc2,,Las Canals,,42.65677640,2.83818940,,,0,1:CALASC,0,3
0:PElasc1,,Las Cobas,,42.69601280,2.91917480,,,0,1:PELASC,0,3
0:PElasc2,,Las Cobas,,42.69593050,2.91952900,,,0,1:PELASC,0,3
0:PElasc3,,Las Cobas,Déviation,42.69553700,2.91920100,,,0,1:PELASC,0,3
0:PElasc4,,Las Cobas,Déviation,42.69548100,2.91941600,,,0,1:PELASC,0,3
0:RIoliv1,,Las Solades,,42.78230800,2.87884000,,,0,1:RIOLIV,0,3
0:RIoliv2,,Las Solades,,42.78221000,2.87915200,,,0,1:RIOLIV,0,3
0:PElass1,,Lassus,,42.70203780,2.90258360,,,0,1:PELASS,0,3
0:PElass2,,Lassus,,42.70186610,2.90254540,,,0,1:PELASS,0,3
0:LBleba1,,Le Barcarès,,42.83871450,3.03656080,,,0,1:LBLBAR,0,3
0:LBleba2,,Le Barcarès,,42.83935930,3.03648730,,,0,1:LBLBAR,0,3
0:PElech1,,Le Chatelier,,42.69004820,2.90538310,,,0,1:PELECH,0,3
0:PElech2,,Le Chatelier,,42.69024270,2.90525320,,,0,1:PELECH,0,3
0:BAlech1,,Le Christ,,42.70093920,2.82183100,,,0,1:BALECH,0,3
0:BAlech2,,Le Christ,,42.70101930,2.82184150,,,0,1:BALECH,0,3
0:RAlela2,,Le Lac,,42.64049400,2.90978500,,,0,1:RALELA,0,3
0:CNlema1,,Le Mail,,42.69923400,3.00627950,,,0,1:CNLEMA,0,3
0:CNlema2,,Le Mail,,42.69919190,3.00635960,,,0,1:CNLEMA,0,3
0:CNlepo1,,Le Ponant,,42.70408690,3.02139880,,,0,1:CNLEPO,0,3
0:CNlepo2,,Le Ponant,,42.70385500,3.02178290,,,0,1:CNLEPO,0,3
0:SOleso1,,Le Soler,,42.67929830,2.77966990,,,0,1:SOLSOL,0,3
0:SOleso2,,Le Soler,,42.67932630,2.78010730,,,0,1:SOLSOL,0,3
0:SOmedi1,,Le Soler Méd,,42.68547430,2.81236650,,,0,1:SOMEDI,0,3
0:SOmedi2,,Le Soler Méd,,42.68513330,2.81105210,,,0,1:SOMEDI,0,3
0:PYlesa1,,Les Avens,,42.75504300,2.85292820,,,0,1:PYLESA,0,3
0:PYlesa2,,Les Avens,,42.75510410,2.85276870,,,0,1:PYLESA,0,3
0:PElche1,,Les Chênes,,42.68785100,2.84000020,,,0,1:PELCHE,0,3
0:PElche2,,Les Chênes,,42.68785100,2.84005000,,,0,1:PELCHE,0,3
0:NAlesf1,,Les Fontaines,,42.68916700,2.99879570,,,0,1:NALESF,0,3
0:NAlesf2,,Les Fontaines,,42.68920510,2.99867530,,,0,1:NALESF,0,3
0:PEleso1,,Les Oiseaux,,42.71221540,2.88951160,,,0,1:PELESO,0,3
0:PEleso2,,Les Oiseaux,,42.71318530,2.88920980,,,0,1:PELESO,0,3
0:PYlorm1,,Les Ormes,,42.75344180,2.85415700,,,0,1:PYORME,0,3
0:PYlorm2,,Les Ormes,,42.75346370,2.85482120,,,0,1:PYORME,0,3
0:SOless1,,Les Sources,,42.68766010,2.82282810,,,0,1:SOLESS,0,3
0:SOless2,,Les Sources,,42.68762580,2.82296920,,,0,1:SOLESS,0,3
0:PElesc1,,Lescot,,42.69300680,2.91836950,,,0,1:PELESC,0,3
0:PElesc2,,Lescot,,42.69295360,2.91873020,,,0,1:PELESC,0,3
0:CNleva1,,Levant,,42.70552830,3.01653410,,,0,1:CNLEVA,0,3
0:CNleva2,,Levant,,42.70533750,3.01697990,,,0,1:CNLEVA,0,3
0:CNleva3,,Levant,,42.70514780,3.01802150,,,0,1:CNLEVA,0,3
0:CNleva4,,Levant,,42.70495460,3.01832450,,,0,1:CNLEVA,0,3
0:CNlibe1,,Liberté,,42.70538330,3.00368790,,,0,1:CNLIBE,0,3
0:CNlibe2,,Liberté,,42.70529940,3.00399950,,,0,1:CNLIBE,0,3
0:PZlibe1,,Liberté,,42.69721600,2.77419040,,,0,1:PZLIBE,0,3
0:PZlibe2,,Liberté,,42.69721220,2.77404140,,,0,1:PZLIBE,0,3
0:POlibe1,,Libertés,,42.64510690,2.87333710,,,0,1:POLIBE,0,3
0:LBlido1,,Lido,,42.81156920,3.03726960,,,0,1:LBLIDO,0,3
0:LBlido2,,Lido,,42.81159200,3.03711080,,,0,1:LBLIDO,0,3
0:PElipp1,,Lippman,,42.69224550,2.85999250,,,0,1:PELIPP,0,3
0:PElipp2,,Lippman,,42.69213490,2.86007450,,,0,1:PELIPP,0,3
0:PEllob1,,Llobères,,42.69680010,2.94280050,,,0,1:PELLOB,0,3
0:PEllob2,,Llobères,,42.69699860,2.94262050,,,0,1:PELLOB,0,3
0:LLllup1,,Llupia,,42.61680480,2.76923470,,,0,1:LLLLUP,0,3
0:LLmimo1,,Llupia Mimosas,,42.62374160,2.76470570,,,0,1:LLMIMO,0,3
0:LLmimo2,,Llupia Mimosas,,42.62364190,2.76464940,,,0,1:LLMIMO,0,3
0:CNloge1,,Loge de Mer,,42.70123670,3.02770930,,,0,1:CNLOGE,0,3
0:CNloge2,,Loge de Mer,,42.70099640,3.02747970,,,0,1:CNLOGE,0,3
0:FEloti1,,Lotissement,,42.67975230,2.74304410,,,0,1:FELOTI,0,3
0:FEloti2,,Lotissement,,42.67963790,2.74376300,,,0,1:FELOTI,0,3
0:PElurc1,,Lurçat,,42.69096760,2.90833950,,,0,1:PELURC,0,3
0:PElurc2,,Lurçat,,42.69074250,2.90871310,,,0,1:PELURC,0,3
0:RIlyce1,,Lycée Agricole,,42.76502960,2.86891890,,,0,1:RILYCA,0,3
0:RIlyce2,,Lycée Agricole,,42.76583050,2.86920160,,,0,1:RILYCA,0,3
0:PElara1,,Lycée Arago,,42.69526370,2.88735160,,,0,1:PELYAR,0,3
0:PElmai1,,Lycée Maillol,,42.71775040,2.88643480,,,0,1:PELMA1,0,3
0:PElmai2,,Lycée Maillol,,42.71819680,2.88726760,,,0,1:PELMA2,0,3
0:PElmai3,,Lycée Maillol,,42.71718210,2.88739870,,,0,1:PELMA3,0,3
0:PElmai5,,Lycée Maillol,,42.71813150,2.88730680,,,0,1:PELMA2,0,3
0:PEpica1,,Lycée Picasso,,42.69760840,2.92605390,,,0,1:PELPIC,0,3
0:PEpica2,,Lycée Picasso,,42.69750210,2.92604520,,,0,1:PELPIC,0,3
0:LBlydi1,,Lydia,,42.83089070,3.03854080,,,0,1:LBLYDI,0,3
0:LBlydi2,,Lydia,,42.83089060,3.03863620,,,0,1:LBLYDI,0,3
0:CNmapr1,,Ma Prairie,,42.70135790,2.99919440,,,0,1:CNMAPR,0,3
0:CNmapr2,,Ma Prairie,,42.70103830,2.99920440,,,0,1:CNMAPR,0,3
0:PEmadr1,,Madrid,,42.68706400,2.84404930,,,0,1:PEMADR,0,3
0:PEmadr2,,Madrid,,42.68730160,2.84377030,,,0,1:PEMADR,0,3
0:LSmail1,,Maillol,,42.77051160,2.99693420,,,0,1:LSMAIL,0,3
0:LSmail2,,Maillol,,42.77043910,2.99695540,,,0,1:LSMAIL,0,3
0:FEmair1,,Mairie,,42.68259420,2.73511910,,,0,1:FEMAIR,0,3
0:FEmair2,,Mairie,,42.68270480,2.73450970,,,0,1:FEMAIR,0,3
0:VSmair1,,Mairie,,42.72745120,2.98612070,,,0,1:VSMAIR,0,3
0:VSmair2,,Mairie,,42.72740540,2.98605200,,,0,1:VSMAIR,0,3
0:LBmair1,,Mairie - Le Barcarès,,42.78904710,3.03526690,,,0,1:LBMAIR,0,3
0:LBmair2,,Mairie - Le Barcarès,,42.78943630,3.03550360,,,0,1:LBMAIR,0,3
0:NAmair1,,Mairie - St-Nazaire,,42.66838840,2.99005630,,,0,1:NAMAIR,0,3
0:NAmair2,,Mairie - St-Nazaire,,42.66838450,2.99039770,,,0,1:NAMAIR,0,3
0:ESmair1,,Mairie St-Estève,,42.70884690,2.84678270,,,0,1:ESMAIR,0,3
0:ESmair2,,Mairie St-Estève,,42.70912930,2.84524970,,,0,1:ESMAIR,0,3
0:VImair1,,Mairie Vill.-la-Riv.,,42.69313040,2.80113290,,,0,1:VRMAIR,0,3
0:PEmajo1,,Majorque,,42.69540000,2.89542000,,,0,1:PEMAJO,0,3
0:PEmajo2,,Majorque,,42.69544600,2.89487430,,,0,1:PEMAJO,0,3
0:CYmalv1,,Malvoisie,,42.67847810,2.94592830,,,0,1:CYMALV,0,3
0:CYmalv2,,Malvoisie,,42.67861550,2.94636420,,,0,1:CYMALV,0,3
0:CNmare1,,Marenda,,42.68136590,3.03170680,,,0,1:CNMARE,0,3
0:CNmare2,,Marenda,,42.68143070,3.03149770,,,0,1:CNMARE,0,3
0:MAmare1,,Marendes,,42.73420330,3.03207090,,,0,1:MAMARE,0,3
0:MAmare2,,Marendes,,42.73412700,3.03229330,,,0,1:MAMARE,0,3
0:CNmiam1,,Marina,,42.70078530,3.03184760,,,0,1:CNMIAM,0,3
0:CNmiam2,,Marina,,42.70064150,3.03202220,,,0,1:CNMIAM,0,3
0:LBmari1,,Marines,,42.83359150,3.03730250,,,0,1:LBMARI,0,3
0:LBmari2,,Marines,,42.83354190,3.03737040,,,0,1:LBMARI,0,3
0:CYmasa1,,Mas Anglade,,42.68704980,2.93450240,,,0,1:CYMASA,0,3
0:CYmasa2,,Mas Anglade,,42.68728630,2.93440340,,,0,1:CYMASA,0,3
0:PEmasb1,,Mas Balande,,42.66705000,2.91832500,,,0,1:PEMASB,0,3
0:PEmasb2,,Mas Balande,,42.66714500,2.91844900,,,0,1:PEMASB,0,3
0:PEmbed1,,Mas Bedos,,42.67723710,2.84808540,,,0,1:PEMBED,0,3
0:PEmbed2,,Mas Bedos,,42.67694680,2.84749140,,,0,1:PEMBED,0,3
0:CYmasb1,,Mas Bonique,,42.68202200,2.94958590,,,0,1:CYMASB,0,3
0:CYmasb2,,Mas Bonique,,42.68236160,2.94992350,,,0,1:CYMASB,0,3
0:PEmbru1,,Mas Bruno,,42.69571680,2.86044450,,,0,1:PEMBRU,0,3
0:PEmbru2,,Mas Bruno,,42.69583130,2.86121180,,,0,1:PEMBRU,0,3
0:CNmasb1,,Mas Bruzy,,42.70828620,2.97695920,,,0,1:CNMASB,0,3
0:CNmasb2,,Mas Bruzy,,42.70816410,2.97702270,,,0,1:CNMASB,0,3
0:PEmasc1,,Mas Cayrol,,42.68973810,2.83241390,,,0,1:PEMASC,0,3
0:PEmasc2,,Mas Cayrol,,42.68970790,2.83260950,,,0,1:PEMASC,0,3
0:RImasd1,,Mas de la Garrigue,,42.78336670,2.89913220,,,0,1:RIMASG,0,3
0:RAmasd1,,Mas de la Raho,,42.63893130,2.91509890,,,0,1:RAMASR,0,3
0:RAmasd2,,Mas de la Raho,,42.63885880,2.91525430,,,0,1:RAMASR,0,3
0:CYmasf1,,Mas Ferrer,,42.68947930,2.94227270,,,0,1:CYMASF,0,3
0:CYmasf2,,Mas Ferrer,,42.68937390,2.94214600,,,0,1:CYMASF,0,3
0:LSmasf1,,Mas Fleuri,,42.77042380,2.98223610,,,0,1:LSMASF,0,3
0:LSmasf2,,Mas Fleuri,,42.77074810,2.98218820,,,0,1:LSMASF,0,3
0:CYmasg1,,Mas Guérido,,42.69160840,2.92147490,,,0,1:CYMASG,0,3
0:CYmasg2,,Mas Guérido,,42.69244370,2.92173310,,,0,1:CYMASG,0,3
0:CNmasl1,,Mas Llaro,,42.70642470,2.95300750,,,0,1:CNMASL,0,3
0:CNmasl2,,Mas Llaro,,42.70671080,2.95468230,,,0,1:CNMASL,0,3
0:CNmasm1,,Mas Miraflor,,42.70956040,2.97079820,,,0,1:CNMASM,0,3
0:CNmasm2,,Mas Miraflor,,42.70939640,2.97111990,,,0,1:CNMASM,0,3
0:RAmasp1,,Mas Palégry,,42.65589520,2.90656610,,,0,1:RAMASP,0,3
0:RAmasp2,,Mas Palégry,,42.65605920,2.90652490,,,0,1:RAMASP,0,3
0:BOmasp1,,Mas Pams,,42.72952260,2.93504000,,,0,1:BOMASP,0,3
0:BOmasp2,,Mas Pams,,42.72964860,2.93505960,,,0,1:BOMASP,0,3
0:TOmasp1,,Mas Puig-Sec,,42.67306900,2.82708700,,,0,1:TOMAPS,0,3
0:PEmstj1,,Mas St-Joseph,,42.69819260,2.93571020,,,0,1:PEMSTJ,0,3
0:PEmstj2,,Mas St-Joseph,,42.69816970,2.93644690,,,0,1:PEMSTJ,0,3
0:PEmstp1,,Mas St-Pierre,,42.69313880,2.94388700,,,0,1:PEMSTP,0,3
0:PEmstp2,,Mas St-Pierre,,42.69303600,2.94377800,,,0,1:PEMSTP,0,3
0:PEmstp3,,Mas St-Pierre,,42.69253570,2.94442310,,,0,1:PEMSTP,0,3
0:PEmstp4,,Mas St-Pierre,,42.69267630,2.94413000,,,0,1:PEMSTP,0,3
0:PEmstp5,,Mas St-Pierre,,42.69255340,2.94481790,,,0,1:PEMSTP,0,3
0:BOmast1,,Mas Taillant,,42.71919810,2.92729650,,,0,1:BOMAST,0,3
0:BOmast2,,Mas Taillant,,42.71875760,2.92704950,,,0,1:BOMAST,0,3
0:PEmasv1,,Mas Vermeil,,42.69415850,2.93595100,,,0,1:PEMASV,0,3
0:PEmasv2,,Mas Vermeil,,42.69452050,2.93605870,,,0,1:PEMASV,0,3
0:CAmass4,,Massaguères,,42.65334310,2.83198170,,,0,1:CAMASS,0,3
0:PEmane1,,Massane,,42.69780350,2.87010960,,,0,1:PEMANE,0,3
0:PEmane2,,Massane,,42.69807040,2.87182020,,,0,1:PEMANE,0,3
0:PEmass1,,Massilia,,42.69998930,2.93319460,,,0,1:PEMAS1,0,3
0:PEmass2,,Massilia,,42.70010760,2.93480520,,,0,1:PEMAS2,0,3
0:PEmass4,,Massilia,,42.69930400,2.93480000,,,0,1:PEMAS4,0,3
0:PEmass5,,Massilia,,42.69938090,2.93447900,,,0,1:PEMAS5,0,3
0:PEmass6,,Massilia,,42.70006920,2.93475900,,,0,1:PEMAS6,0,3
0:LSmass1,,Massé,,42.76651760,2.98548080,,,0,1:LSMASS,0,3
0:LSmass2,,Massé,,42.76662450,2.98503970,,,0,1:LSMASS,0,3
0:PEmsse1,,Massé,,42.72128300,2.89029600,,,0,1:PEMSSE,0,3
0:PEmsse2,,Massé,,42.72123330,2.89036750,,,0,1:PEMSSE,0,3
0:PEmaur1,,Maureillas,,42.68358600,2.90686580,,,0,1:PEMAUR,0,3
0:PEmaur2,,Maureillas,,42.68369280,2.90697430,,,0,1:PEMAUR,0,3
0:PEmeil1,,Meilhac,,42.72252640,2.89062950,,,0,1:PEMEIL,0,3
0:PEmeil2,,Meilhac,,42.72244200,2.89067460,,,0,1:PEMEIL,0,3
0:PEmeis1,,Meissonnier,,42.69621070,2.91258250,,,0,1:PEMEIS,0,3
0:PEmeis2,,Meissonnier,,42.69616860,2.91257660,,,0,1:PEMEIS,0,3
0:PEmerc1,,Mercader,,42.69415960,2.88968830,,,0,1:PEMERC,0,3
0:PEmerc2,,Mercader,,42.69441140,2.88959490,,,0,1:PEMERC,0,3
0:PEmerm1,,Mermoz,,42.69581220,2.90432670,,,0,1:PEMERM,0,3
0:PEmerm2,,Mermoz,,42.69577790,2.90459370,,,0,1:PEMERM,0,3
0:SAmich1,,Michelet,,42.65890870,2.94531060,,,0,1:SAMICH,0,3
0:SAmich2,,Michelet,,42.65891270,2.94495680,,,0,1:SAMICH,0,3
0:PEmila1,,Milan,,42.68962470,2.85975030,,,0,1:PEMILA,0,3
0:PEmila2,,Milan,,42.68960950,2.85985990,,,0,1:PEMILA,0,3
0:PEmimo1,,Mimosas,,42.70524210,2.90759870,,,0,1:PEMIMO,0,3
0:PEmimo2,,Mimosas,,42.70521150,2.90755080,,,0,1:PEMIMO,0,3
0:CNmini1,,Minigolf,,42.68629830,3.03468630,,,0,1:CNMINI,0,3
0:CNmini2,,Minigolf,,42.68599060,3.03452890,,,0,1:CNMINI,0,3
0:PEmino1,,Minorque,,42.66744230,2.88018440,,,0,1:PEMINO,0,3
0:PEmino2,,Minorque,,42.66738880,2.88022900,,,0,1:PEMINO,0,3
0:CNmoli1,,Moli del Vent,,42.70085520,3.00919410,,,0,1:CNMOLI,0,3
0:CNmoli2,,Moli del Vent,,42.70092770,3.00951360,,,0,1:CNMOLI,0,3
0:PEmqui1,,Montesquieu,,42.68048470,2.90303950,,,0,1:PEMQUI,0,3
0:PEmqui2,,Montesquieu,,42.68044470,2.90317790,,,0,1:PEMQUI,0,3
0:PEmont1,,Monticelli,,42.73245240,2.88944790,,,0,1:PEMONT,0,3
0:PEmont2,,Monticelli,,42.73255920,2.88958070,,,0,1:PEMONT,0,3
0:MOmont1,,Montner,,42.74997420,2.67776720,,,0,1:MOMONT,0,3
0:CNmoud1,,Moudat,,42.69679750,3.02764650,,,0,1:CNMOUD,0,3
0:CNmoud2,,Moudat,,42.69698330,3.02751450,,,0,1:CNMOUD,0,3
0:PEmoui1,,Mouillard,,42.72666260,2.87410650,,,0,1:PEMOUI,0,3
0:VSmoul1,,Moulin,,42.72739020,2.98981430,,,0,1:VSMOUL,0,3
0:VSmoul2,,Moulin,,42.72732540,2.98980140,,,0,1:VSMOUL,0,3
0:PEmoul1,,Moulin à Vent,,42.68036640,2.90879730,,,0,1:PEMOUL,0,3
0:PEmoul2,,Moulin à Vent,,42.68095400,2.90940790,,,0,1:PEMOUL,0,3
0:PEmoul3,,Moulin à Vent,Déviation,42.68048000,2.90847900,,,0,1:PEMOUL,0,3
0:PEmoul4,,Moulin à Vent,Déviation,42.68050300,2.90861500,,,0,1:PEMOUL,0,3
0:RImour1,,Mourère,,42.76554860,2.87600020,,,0,1:RIMOUR,0,3
0:RImour2,,Mourère,,42.76539980,2.87585000,,,0,1:RIMOUR,0,3
0:PEmutu1,,Mutualité,,42.66887660,2.88939330,,,0,1:PEMUTU,0,3
0:PEmutu2,,Mutualité,,42.66888430,2.88951160,,,0,1:PEMUTU,0,3
0:PEmuno1,,Muñoz,,42.68041990,2.89299680,,,0,1:PEMUNO,0,3
0:PEmuno2,,Muñoz,,42.68064880,2.89352350,,,0,1:PEMUNO,0,3
0:CNmedc1,,Médi'Canet,,42.70388410,3.01464490,,,0,1:CNMEDI,0,3
0:CYmedi1,,Médipole,,42.69216160,2.93230270,,,0,1:CYMED,0,3
0:CYmedi2,,Médipole,,42.69159320,2.93239120,,,0,1:CYMED,0,3
0:ESmedi1,,Méditerranée,,42.71706770,2.83843300,,,0,1:ESMEDI,0,3
0:ESmedi2,,Méditerranée,,42.71719740,2.83877850,,,0,1:ESMEDI,0,3
0:LBmedi1,,Méditerranée,,42.79195400,3.03548720,,,0,1:LBMED,0,3
0:LBmedi2,,Méditerranée,,42.79183950,3.03545900,,,0,1:LBMED,0,3
0:TOnatu1,,Naturopole,,42.66369630,2.83504530,,,0,1:TONATU,0,3
0:TOnatu2,,Naturopole,,42.66361990,2.83456900,,,0,1:TONATU,0,3
0:LBnaut1,,Nautica,,42.81156540,3.03007860,,,0,1:LBNAUT,0,3
0:LBnaut2,,Nautica,,42.81052010,3.03012540,,,0,1:LBNAUT,0,3
0:LBnaia1,,Naïades,,42.83784470,3.03934530,,,0,1:LBNAIA,0,3
0:LBnaia2,,Naïades,,42.83807370,3.03958150,,,0,1:LBNAIA,0,3
0:RAnorm1,,Normandie,,42.63078210,2.91874760,,,0,1:RANORM,0,3
0:RAnorm2,,Normandie,,42.63046050,2.91978290,,,0,1:RANORM,0,3
0:PEnung1,,Nungesser et Coli,,42.68175240,2.89216450,,,0,1:PENUNG,0,3
0:PEnung2,,Nungesser et Coli,,42.68232610,2.89108680,,,0,1:PENUNG,0,3
0:NYnyls1,,Nyls,,42.62832630,2.84534960,,,0,1:NYNYLS,0,3
0:NYnyls2,,Nyls,,42.62817000,2.84542990,,,0,1:NYNYLS,0,3
0:LBoasi1,,Oasis,,42.77596270,3.02388670,,,0,1:LBOASI,0,3
0:LBoasi2,,Oasis,,42.77597420,3.02437780,,,0,1:LBOASI,0,3
0:PEocci1,,Occitanie,,42.68289950,2.90802220,,,0,1:PEOCCI,0,3
0:PEocci2,,Occitanie,,42.68309770,2.90822270,,,0,1:PEOCCI,0,3
0:PEocci3,,Occitanie,Déviation,42.68343800,2.90755000,,,0,1:PEOCCI,0,3
0:PEocci4,,Occitanie,Déviation,42.68337300,2.90764700,,,0,1:PEOCCI,0,3
0:TRoffi1,,Office du Tourisme,,42.76573170,3.02727320,,,0,1:TROFFI,0,3
0:TRoffi2,,Office du Tourisme,,42.76609790,3.02774380,,,0,1:TROFFI,0,3
0:PEoise1,,Oiseau Blanc,,42.68893280,2.88516870,,,0,1:PEOISE,0,3
0:PEoise2,,Oiseau Blanc,,42.68902270,2.88523530,,,0,1:PEOISE,0,3
0:HYoliv1,,Oliviers,,42.78721460,2.96407070,,,0,1:HYOLIV,0,3
0:LLoliv1,,Olivèdes,,42.62339780,2.77011350,,,0,1:LLOLIV,0,3
0:LLoliv2,,Olivèdes,,42.62342830,2.77024650,,,0,1:LLOLIV,0,3
0:POolym1,,Olympéo,,42.64536900,2.86770400,,,0,1:POOLYM,0,3
0:MAomeg3,,Oméga,,42.73342610,3.03549970,,,0,1:MAOMEG,0,3
0:MAomeg4,,Oméga,,42.73338860,3.03538640,,,0,1:MAOMEG,0,3
0:OPopou1,,Opoul,,42.86632160,2.87393570,,,0,1:OPOPOU,0,3
0:CYorf3,,Orfila,,42.67026310,2.94506220,,,0,1:CYORF,0,3
0:CYorf4,,Orfila,,42.67003030,2.94552440,,,0,1:CYORF,0,3
0:PEpagn1,,Pagnol,,42.71340180,2.88323780,,,0,1:PEPAGN,0,3
0:PEpagn2,,Pagnol,,42.71352390,2.88327310,,,0,1:PEPAGN,0,3
0:TApala1,,Palais des Congrès,,42.81452180,2.74506140,,,0,1:TAPALA,0,3
0:TApala2,,Palais des Congrès,,42.81459810,2.74533700,,,0,1:TAPALA,0,3
0:PEpalm1,,Palmarole,,42.70340350,2.89895990,,,0,1:PEPALM,0,3
0:PEpalm2,,Palmarole,,42.70320120,2.89845400,,,0,1:PEPALM,0,3
0:BOpalm1,,Palmeraie,,42.72794800,2.94486500,,,0,1:BOPALM,0,3
0:BOpalm2,,Palmeraie,,42.72806290,2.94459400,,,0,1:BOPALM,0,3
0:LSpalo1,,Palombière,,42.77228160,3.00336740,,,0,1:LSPALO,0,3
0:LSpalo2,,Palombière,,42.77220540,3.00333360,,,0,1:LSPALO,0,3
0:PEpanc1,,Panchot,,42.68881990,2.87662510,,,0,1:PEPANC,0,3
0:PEpanc2,,Panchot,,42.68904110,2.87756660,,,0,1:PEPANC,0,3
0:PEparc1,,Parc des Expositions,,42.70938100,2.90497090,,,0,1:PEPARC,0,3
0:PEparc2,,Parc des Expositions,,42.70885460,2.90500020,,,0,1:PEPARC,0,3
0:BOparc1,,Parc des Loisirs,,42.73083110,2.92620010,,,0,1:BOPARC,0,3
0:BOparc2,,Parc des Loisirs,,42.73073580,2.92597340,,,0,1:BOPARC,0,3
0:BOparc3,,Parc des Loisirs,,42.73056000,2.92373500,,,0,1:BOPARC,0,3
0:BOparc4,,Parc des Loisirs,,42.72981000,2.92480400,,,0,1:BOPARC,0,3
0:PEparc6,,Parc des Sports,,42.67833320,2.90566280,,,0,1:PEPSP4,0,3
0:PEpspo1,,Parc des Sports,,42.67730700,2.90518480,,,0,1:PEPSP1,0,3
0:PEpspo3,,Parc des Sports,,42.67832180,2.90523820,,,0,1:PEPSP3,0,3
0:PEpspo4,,Parc des Sports,,42.67805090,2.90506960,,,0,1:PEPSP2,0,3
0:PEpspo5,,Parc des Sports,Déviation,42.67673500,2.90518200,,,0,1:PEPSP2,0,3
0:PTparc1,,Parc Jonquères,,42.62483590,2.81328080,,,0,1:PTPARC,0,3
0:PTparc2,,Parc Jonquères,,42.62490070,2.81342630,,,0,1:PTPARC,0,3
0:CNpark1,,Parking Floralies,,42.68967060,3.02904060,,,0,1:CNPARK,0,3
0:CNpark2,,Parking Floralies,,42.68948360,3.02907630,,,0,1:CNPARK,0,3
0:ESpark1,,Parking St-Estève,,42.70927050,2.86500000,,,0,1:ESPARK,0,3
0:ESpark2,,Parking St-Estève,,42.70924370,2.86445690,,,0,1:ESPARK,0,3
0:PEpark2,,Parking St-Martin,,42.69538880,2.88989540,,,0,1:PEPARK,0,3
0:PEpark1,,Parking Universit.,,42.68360490,2.89755400,,,0,1:PEPKUN,0,3
0:PEpwil1,,Parking Wilson,,42.70170010,2.89584840,,,0,1:PEPWIL,0,3
0:VNpasd1,,Pas de l'échelle,,42.85058790,2.80094100,,,0,1:VNPASD,0,3
0:PEpasc1,,Pascot,,42.67459660,2.85069220,,,0,1:PEPASC,0,3
0:PEpass1,,Passerelle,,42.70207590,2.89445420,,,0,1:PEPASS,0,3
0:PEpass2,,Passerelle,,42.70228960,2.89503600,,,0,1:PEPASS,0,3
0:TOpauc1,,Pau Casals,,42.67274090,2.83451560,,,0,1:TOPAUC,0,3
0:TOpauc2,,Pau Casals,,42.67297730,2.83522130,,,0,1:TOPAUC,0,3
0:PEpber1,,Paul Bert,,42.66387180,2.88925620,,,0,1:PEPBER,0,3
0:PEpber2,,Paul Bert,,42.66355890,2.88869380,,,0,1:PEPBER,0,3
0:PEpfor1,,Paul Fort,,42.70892540,2.89083490,,,0,1:PEPFOR,0,3
0:PEpfor2,,Paul Fort,,42.70896610,2.89089230,,,0,1:PEPFOR,0,3
0:PEperr1,,Perrin,,42.73441700,2.89003590,,,0,1:PEPERR,0,3
0:PEperr2,,Perrin,,42.73439030,2.89014320,,,0,1:PEPERR,0,3
0:PEpeti1,,Petit Clos,,42.66485970,2.88030030,,,0,1:PEPECL,0,3
0:PEpeti2,,Petit Clos,,42.66491310,2.88031410,,,0,1:PEPECL,0,3
0:PYpeyr1,,Peyrestortes,,42.75546280,2.84478610,,,0,1:PYPEYR,0,3
0:PYpeyr2,,Peyrestortes,,42.75556950,2.84449650,,,0,1:PYPEYR,0,3
0:CYpica1,,Picasso,,42.68543560,2.94012250,,,0,1:CYPICA,0,3
0:CYpica2,,Picasso,,42.68552020,2.94040180,,,0,1:CYPICA,0,3
0:CYpica3,,Picasso,,42.68620810,2.93980830,,,0,1:CYPICA,0,3
0:CYpica4,,Picasso,,42.68605790,2.94033110,,,0,1:CYPICA,0,3
0:SApdco1,,Pierre de Coubertin,,42.65999210,2.95192490,,,0,1:SAPDCO,0,3
0:SApdco2,,Pierre de Coubertin,,42.65985900,2.95188740,,,0,1:SAPDCO,0,3
0:OPplac1,,Place,,42.86974700,2.87356100,,,0,1:OPPLAC,0,3
0:PEplca1,,Place Cassanyes,,42.69711720,2.90197960,,,0,1:PEPLCA,0,3
0:LAplac1,,Place du marché,,42.76842920,2.65626870,,,0,1:LAPLAC,0,3
0:LAplac2,,Place du marché,,42.76849710,2.65629080,,,0,1:LAPLAC,0,3
0:PEplac2,,Place Péri,,42.69847320,2.89135030,,,0,1:PEPLAC,0,3
0:PEplac1,,Place Rigaud,,42.69802750,2.89700490,,,0,1:PEPLRI,0,3
0:LLplat1,,Platanes,,42.62121580,2.76879140,,,0,1:LLPLAT,0,3
0:LLplat2,,Platanes,,42.62126540,2.76895260,,,0,1:LLPLAT,0,3
0:BOplat1,,Platanium,,42.72303010,2.93778610,,,0,1:BOPLAT,0,3
0:BOplat2,,Platanium,,42.72373950,2.93763070,,,0,1:BOPLAT,0,3
0:LSpoin1,,Poincaré,,42.76833720,2.99206660,,,0,1:LSPOIN,0,3
0:LSpoin2,,Poincaré,,42.76829530,2.99233480,,,0,1:LSPOIN,0,3
0:VSpoin1,,Point Jeunes,,42.72647480,2.97847530,,,0,1:VSPOIN,0,3
0:VSpoin2,,Point Jeunes,,42.72644810,2.97993040,,,0,1:VSPOIN,0,3
0:CNpon1,,Pole Nautique,,42.70703000,3.03449200,,,0,1:CNPON,0,3
0:POpoll2,,Pollestres,,42.63127770,2.86951080,,,0,1:POPOLL,0,3
0:POpoll3,,Pollestres,,42.63094570,2.86972900,,,0,1:POPOLL,0,3
0:PEpoly1,,Polygone Nord,,42.73749540,2.89094690,,,0,1:PEPOLY,0,3
0:PEpoly2,,Polygone Nord,,42.73785780,2.89117240,,,0,1:PEPOLY,0,3
0:PEpomp1,,Pompiers,,42.70669560,2.88606860,,,0,1:PEPOMP,0,3
0:PEpomp2,,Pompiers,,42.70669550,2.88620780,,,0,1:PEPOMP,0,3
0:RIpont1,,Pont Autoroute,,42.75656070,2.89089830,,,0,1:RIPONT,0,3
0:RIpont2,,Pont Autoroute,,42.75670560,2.89086810,,,0,1:RIPONT,0,3
0:PTpont1,,Ponteilla,,42.62635410,2.81415060,,,0,1:PTPONT,0,3
0:PTpont2,,Ponteilla,,42.62633130,2.81418700,,,0,1:PTPONT,0,3
0:CNport1,,Port,,42.70145800,3.03632950,,,0,1:CNPORT,0,3
0:CNport2,,Port,,42.70104790,3.03658570,,,0,1:CNPORT,0,3
0:CNport3,,Port,,42.70154640,3.03555770,,,0,1:CNPORT,0,3
0:LBport1,,Port,,42.79542920,3.03643920,,,0,1:LBPORT,0,3
0:LBport2,,Port,,42.79594800,3.03659530,,,0,1:LBPORT,0,3
0:PEport1,,Port Bou,,42.66057210,2.87801080,,,0,1:PEPORT,0,3
0:PEport2,,Port Bou,,42.66046140,2.87840010,,,0,1:PEPORT,0,3
0:PEvend1,,Port Vendres,,42.68133290,2.91047200,,,0,1:PEVEND,0,3
0:PEvend2,,Port Vendres,,42.68163100,2.91056700,,,0,1:PEVEND,0,3
0:PEpest1,,Porte d'Espagne,,42.66783520,2.89066820,,,0,1:PEPDES,0,3
0:PEpest2,,Porte d'Espagne,,42.66791140,2.89070410,,,0,1:PEPDES,0,3
0:PEpest3,,Porte d'Espagne,,42.66749310,2.89119900,,,0,1:PEPDES,0,3
0:PEpest4,,Porte d'Espagne,,42.66723820,2.89141110,,,0,1:PEPDES,0,3
0:SOport1,,Portes du Soler,,42.68376920,2.80501530,,,0,1:SOPORT,0,3
0:SOport2,,Portes du Soler,,42.68375020,2.80515410,,,0,1:SOPORT,0,3
0:BOpost1,,Poste,,42.73152540,2.92972420,,,0,1:BOPOST,0,3
0:BOpost2,,Poste,,42.73153370,2.92990650,,,0,1:BOPOST,0,3
0:CYpost1,,Poste,,42.68196530,2.93680440,,,0,1:CYPOST,0,3
0:CYpost2,,Poste,,42.68181990,2.93698840,,,0,1:CYPOST,0,3
0:LSpost1,,Poste,,42.77276880,2.98722190,,,0,1:LSPOST,0,3
0:PEpost1,,Poste,,42.69671320,2.88892700,,,0,1:PEPOST,0,3
0:PEpost2,,Poste,,42.69678880,2.88941410,,,0,1:PEPOST,0,3
0:Topost1,,Poste,,42.67241670,2.83220000,,,0,1:TOPOST,0,3
0:POpoud1,,Pou del Gel,,42.63511270,2.87199430,,,0,1:POPOUD,0,3
0:POpoud2,,Pou del Gel,,42.63544460,2.87237260,,,0,1:POPOUD,0,3
0:RIpress1,,Pressoir,,42.77067570,2.88382790,,,0,1:RIPRES,0,3
0:RIpress2,,Pressoir,,42.77036670,2.88354420,,,0,1:RIPRES,0,3
0:PEprod1,,Production,,42.69086830,2.85334590,,,0,1:PEPROD,0,3
0:PEprod2,,Production,,42.69073870,2.85329340,,,0,1:PEPROD,0,3
0:OPprom1,,Promenade,,42.86881160,2.87433970,,,0,1:OPPROM,0,3
0:PEpyre1,,Pyrénées,,42.69618220,2.88835310,,,0,1:PEPYRE,0,3
0:PEpyre2,,Pyrénées,,42.69642390,2.88836810,,,0,1:PEPYRE,0,3
0:RIpeag1,,Péage A9,,42.78150120,2.90049120,,,0,1:RIPEAG,0,3
0:PEpegu1,,Péguy,,42.69203940,2.90609980,,,0,1:PEPEGU,0,3
0:PEpegu2,,Péguy,,42.69186010,2.90631030,,,0,1:PEPEGU,0,3
0:RIpepi1,,Pépinière,,42.79593650,2.88139010,,,0,1:RIPEPI,0,3
0:RIpepi2,,Pépinière,,42.79598230,2.88134170,,,0,1:RIPEPI,0,3
0:PZpezi1,,Pézilla-la-Rivière,,42.69525150,2.76670150,,,0,1:PZPEZI,0,3
0:PZpezi2,,Pézilla-la-Rivière,,42.69541920,2.76533010,,,0,1:PZPEZI,0,3
0:PEpope1,,Pêchers-Poudrière,,42.71625420,2.89670700,,,0,1:PEPOPE,0,3
0:PEpope2,,Pêchers-Poudrière,,42.71658330,2.89655450,,,0,1:PEPOPE,0,3
0:LBpech1,,Pêcheurs,,42.82152560,3.02958110,,,0,1:LBPECH,0,3
0:LBpech2,,Pêcheurs,,42.82158650,3.02967090,,,0,1:LBPECH,0,3
0:PEpech1,,Pêcheurs,,42.70320540,2.88744990,,,0,1:PEPECH,0,3
0:PEqnob1,,Quai Nobel,,42.69712090,2.88747010,,,0,1:PEQNOB,0,3
0:PEqnob2,,Quai Nobel,,42.69714180,2.88749720,,,0,1:PEQNOB,0,3
0:PErais5,,Raisins,,42.69288050,2.87260310,,,0,1:PERAIS,0,3
0:PErais6,,Raisins,,42.69274890,2.87244120,,,0,1:PERAIS,0,3
0:PEraph1,,Raphaël,,42.69122700,2.89691450,,,0,1:PERAPH,0,3
0:PEraph2,,Raphaël,,42.69139470,2.89602540,,,0,1:PERAPH,0,3
0:PEreic1,,Reichel,,42.69186020,2.86559060,,,0,1:PEREIC,0,3
0:PEreic2,,Reichel,,42.69207380,2.86585000,,,0,1:PEREIC,0,3
0:PErena1,,Renaudel,,42.69004330,2.88392630,,,0,1:PERENA,0,3
0:PErena2,,Renaudel,,42.69075510,2.88343690,,,0,1:PERENA,0,3
0:PErepo1,,Repos,,42.69115070,2.89050340,,,0,1:PEREPO,0,3
0:PErepo2,,Repos,,42.69120030,2.89058450,,,0,1:PEREPO,0,3
0:PEribe1,,Ribeil,,42.67171480,2.90488840,,,0,1:PERIBE,0,3
0:PEribe2,,Ribeil,,42.67183680,2.90495800,,,0,1:PERIBE,0,3
0:PEripo1,,Ripoll,,42.66201400,2.87776160,,,0,1:PERIPO,0,3
0:PEripo2,,Ripoll,,42.66228100,2.87820050,,,0,1:PERIPO,0,3
0:PEriqu1,,Riquet,,42.69777650,2.88539140,,,0,1:PERIQU,0,3
0:RIrive1,,Rivesaltes,,42.77010720,2.86975410,,,0,1:RIRIVE,0,3
0:PErobi1,,Robin,,42.69796890,2.87786580,,,0,1:PEROBI,0,3
0:PErobi2,,Robin,,42.69803940,2.87800540,,,0,1:PEROBI,0,3
0:RIrobo1,,Roboul,,42.77408220,2.87162040,,,0,1:RIROBO,0,3
0:RIrobo2,,Roboul,,42.77416600,2.87172750,,,0,1:RIROBO,0,3
0:OProma1,,Romarins,,42.86898260,2.87663950,,,0,1:OPROMA,0,3
0:CNrose1,,Rose des Sables,,42.68008070,3.03304670,,,0,1:CNROSE,0,3
0:CNrose2,,Rose des Sables,,42.68013380,3.03302960,,,0,1:CNROSE,0,3
0:PErose1,,Roseraie,,42.70287020,2.94368630,,,0,1:PEROSE,0,3
0:PErose2,,Roseraie,,42.70193520,2.94351330,,,0,1:PEROSE,0,3
0:PErose3,,Roseraie,,42.70305750,2.94366520,,,0,1:PEROSE,0,3
0:PErose4,,Roseraie,,42.70209890,2.94354020,,,0,1:PEROSE,0,3
0:LSrous1,,Rousseau,,42.77400970,2.99464970,,,0,1:LSROUS,0,3
0:LSrous2,,Rousseau,,42.77389910,2.99464970,,,0,1:LSROUS,0,3
0:CNrous1,,Roussillon,,42.69755170,3.03608940,,,0,1:CNROUS,0,3
0:CNrous2,,Roussillon,,42.69747540,3.03586530,,,0,1:CNROUS,0,3
0:CNrous3,,Roussillon,,42.69774270,3.03536920,,,0,1:CNROUS,0,3
0:LBrous1,,Roussillon,,42.82367650,3.03410300,,,0,1:LBROUS,0,3
0:LBrous2,,Roussillon,,42.82346340,3.03409700,,,0,1:LBROUS,0,3
0:PErous1,,Roussillonnaise,,42.72029490,2.88632230,,,0,1:PEROUS,0,3
0:PErous2,,Roussillonnaise,,42.72029880,2.88640050,,,0,1:PEROUS,0,3
0:FErout1,,Route de Corbère,,42.67845530,2.73843550,,,0,1:FERCOR,0,3
0:PErout1,,Route de Thuir,,42.68199530,2.86038260,,,0,1:PEROUT,0,3
0:PErout2,,Route de Thuir,,42.68196860,2.86050800,,,0,1:PEROUT,0,3
0:SOrout1,,Route de Toulouges,,42.68421930,2.81833430,,,0,1:SOROUT,0,3
0:PErube1,,Rubens,,42.69599860,2.91637190,,,0,1:PERUBE,0,3
0:PErube2,,Rubens,,42.69598390,2.91521360,,,0,1:PERUBE,0,3
0:PErube3,,Rubens,Déviation,42.69432700,2.91296900,,,0,1:PERUBE,0,3
0:PErube4,,Rubens,Déviation,42.69364000,2.91424400,,,0,1:PERUBE,0,3
0:SArear1,,Réart,,42.65258780,2.94232820,,,0,1:SAREAR,0,3
0:SArear2,,Réart,,42.65264880,2.94194220,,,0,1:SAREAR,0,3
0:BOresi1,,Résidence Canigou,,42.72908020,2.93201040,,,0,1:BORESI,0,3
0:BOresi2,,Résidence Canigou,,42.72883220,2.93196270,,,0,1:BORESI,0,3
0:PEsacr1,,Sacré Coeur,,42.71672340,2.88233170,,,0,1:PESACR,0,3
0:PEsacr2,,Sacré Coeur,,42.71661760,2.88244530,,,0,1:PESACR,0,3
0:BOsala1,,Salanque,,42.72951890,2.93857430,,,0,1:BOSALA,0,3
0:BOsala2,,Salanque,,42.72933950,2.93976640,,,0,1:BOSALA,0,3
0:BOsala4,,Salanque,,42.72965630,2.93930250,,,0,1:BOSALA,0,3
0:RIsala1,,Salanque,,42.75991060,2.87277940,,,0,1:RISALA,0,3
0:RIsala2,,Salanque,,42.75997530,2.87280180,,,0,1:RISALA,0,3
0:SAsale1,,Saleilles,,42.66007990,2.94057960,,,0,1:SASALE,0,3
0:PEsank1,,Sankéo,,42.72141680,2.89617550,,,0,1:PESANK,0,3
0:PEsank2,,Sankéo,,42.72159950,2.89638200,,,0,1:PESANK,0,3
0:ESsard1,,Sardane,,42.71622810,2.84748100,,,0,1:ESSARD,0,3
0:ESsard2,,Sardane,,42.71607980,2.84770030,,,0,1:ESSARD,0,3
0:RIsard1,,Sardane,,42.76167290,2.87616610,,,0,1:RISARD,0,3
0:RIsard2,,Sardane,,42.76145940,2.87601520,,,0,1:RISARD,0,3
0:PEsate1,,Satellite,,42.70729060,2.90105700,,,0,1:PESATE,0,3
0:PEsate2,,Satellite,,42.70729990,2.90126600,,,0,1:PESATE,0,3
0:CNsauv1,,Sauvy,,42.69578160,3.02985450,,,0,1:CNSAUV,0,3
0:CNsauv2,,Sauvy,,42.69569400,3.02981690,,,0,1:CNSAUV,0,3
0:LBst-a1,,St-Ange,,42.80159370,3.03691360,,,0,1:LBSTAN,0,3
0:LBst-a2,,St-Ange,,42.80204000,3.03711300,,,0,1:LBSTAN,0,3
0:PEst-a1,,St-Assiscle,,42.69169020,2.88062770,,,0,1:PESTAS,0,3
0:PEst-a2,,St-Assiscle,,42.69184220,2.88055280,,,0,1:PESTAS,0,3
0:ESst-e1,,St-Estève,,42.70666880,2.83869390,,,0,1:ESSTES,0,3
0:ESst-e2,,St-Estève,,42.70702360,2.83924960,,,0,1:ESSTES,0,3
0:FEst-f1,,St-Féliu d'Avall,,42.68361860,2.73161270,,,0,1:FESFDA,0,3
0:FEst-f2,,St-Féliu d'Avall,,42.68392180,2.73041870,,,0,1:FESFDA,0,3
0:PTst-g2,,St-Galdric,,42.62910450,2.81699750,,,0,1:PTSTGA,0,3
0:PTst-g3,,St-Galdric,,42.62952030,2.81704950,,,0,1:PTSTGA,0,3
0:PEst-g1,,St-Gaudérique,,42.69289400,2.91374920,,,0,1:PESTGA,0,3
0:PEst-g2,,St-Gaudérique,,42.69282010,2.91377310,,,0,1:PESTGA,0,3
0:HYst-h1,,St-Hippolyte,,42.78021230,2.96322270,,,0,1:HYSTHI,0,3
0:HYst-h2,,St-Hippolyte,,42.77990330,2.96312780,,,0,1:HYSTHI,0,3
0:LSst-j1,,St-Jacques,,42.77257540,2.99836760,,,0,1:LSSTJA,0,3
0:LSst-j2,,St-Jacques,,42.77257160,2.99844580,,,0,1:LSSTJA,0,3
0:PEst-j1,,St-Jacques,,42.69882960,2.90543600,,,0,1:PESTJA,0,3
0:PEstja2,,St-Jacques,,42.69876850,2.90570140,,,0,1:PESTJA,0,3
0:TRstju1,,St-Julien,,42.75518040,3.00134040,,,0,1:TRSTJU,0,3
0:TRstju2,,St-Julien,,42.75547030,3.00234980,,,0,1:TRSTJU,0,3
0:LSsta2,,St-Laurent / Slque,,42.77323520,3.01099060,,,0,1:LSLSAL,0,3
0:LSstla1,,St-Laurent / Slque,,42.77308270,3.00973300,,,0,1:LSLSAL,0,3
0:PEstlo1,,St-Louis,,42.71545780,2.88256190,,,0,1:PESTLO,0,3
0:PEstlo2,,St-Louis,,42.71540820,2.88265300,,,0,1:PESTLO,0,3
0:ESstma1,,St-Mamet,,42.71018600,2.85451340,,,0,1:ESSTMA,0,3
0:ESstma2,,St-Mamet,,42.71006380,2.85264850,,,0,1:ESSTMA,0,3
0:PEstma2,,St-Martin,,42.69359830,2.88795160,,,0,1:PESTMA,0,3
0:CNstmi1,,St-Michel,,42.70751560,2.98598220,,,0,1:CNSTMI,0,3
0:CNstmi2,,St-Michel,,42.70623390,2.98573540,,,0,1:CNSTMI,0,3
0:HYstmi1,,St-Michel,,42.78429400,2.96517850,,,0,1:HYSTMI,0,3
0:HYstmi2,,St-Michel,,42.78427510,2.96523430,,,0,1:HYSTMI,0,3
0:NAstat1,,St-Nazaire Era,,42.66492600,2.99230090,,,0,1:NASNER,0,3
0:PEstpi1,,St-Pierre,,42.69713960,2.86691050,,,0,1:PESTPI,0,3
0:PEstpi2,,St-Pierre,,42.69667430,2.86514450,,,0,1:PESTPI,0,3
0:MAstad1,,Stade Carrère,,42.73044960,3.02365140,,,0,1:MASTAD,0,3
0:MAstad2,,Stade Carrère,,42.73045720,3.02380630,,,0,1:MASTAD,0,3
0:MAstan1,,Ste-Anne,,42.72699360,3.01238420,,,0,1:MASTAN,0,3
0:MAstan2,,Ste-Anne,,42.72694020,3.01287080,,,0,1:MASTAN,0,3
0:SOsteu1,,Ste-Eugénie,,42.68650050,2.81752160,,,0,1:SOSTEU,0,3
0:SOsteu2,,Ste-Eugénie,,42.68632130,2.81698350,,,0,1:SOSTEU,0,3
0:MAstma1,,Ste-Marie,,42.72650530,3.01696780,,,0,1:MASTMA,0,3
0:MAstma2,,Ste-Marie,,42.72638310,3.01713990,,,0,1:MASTMA,0,3
0:MAstmp1,,Ste-Marie Plage,,42.72521960,3.03556080,,,0,1:MASTMP,0,3
0:SAsudr1,,Sud Roussillon,,42.65789020,2.92715290,,,0,1:SASUDR,0,3
0:PEsejo1,,Séjourné,,42.69677720,2.92264010,,,0,1:PESEJO,0,3
0:PEsejo2,,Séjourné,,42.69699090,2.92352920,,,0,1:PESEJO,0,3
0:BAtail1,,Taillade,,42.69882580,2.81816200,,,0,1:BATAIL,0,3
0:BAtail2,,Taillade,,42.69848240,2.81782010,,,0,1:BATAIL,0,3
0:LBtama1,,Tamaris,,42.77502060,3.02013850,,,0,1:LBTAMA,0,3
0:LBtama2,,Tamaris,,42.77497850,3.02025770,,,0,1:LBTAMA,0,3
0:TAtaut1,,Tautavel,,42.81609340,2.74917130,,,0,1:TATAUT,0,3
0:TAtaut2,,Tautavel,,42.81573530,2.74915900,,,0,1:TATAUT,0,3
0:PEtech1,,Tech,,42.68632380,2.90386840,,,0,1:PETECH,0,3
0:PEtech2,,Tech,,42.68621260,2.90392260,,,0,1:PETECH,0,3
0:PEtecn5,,Tecnosud 1,,42.66573700,2.90569800,,,0,1:PETECN,0,3
0:PEtecn6,,Tecnosud 1,,42.66594410,2.90575850,,,0,1:PETECN,0,3
0:PEtec23,,Tecnosud 2,,42.66327300,2.90658100,,,0,1:PETEC2,0,3
0:PEtec24,,Tecnosud 2,,42.66297500,2.90676700,,,0,1:PETEC2,0,3
0:PEtec25,,Tecnosud 2,,42.66209100,2.90694500,,,0,1:PETEC2,0,3
0:PEtec26,,Tecnosud 2,,42.66210090,2.90708000,,,0,1:PETEC2,0,3
0:BXtemp1,,Templiers,,42.74592460,2.81254700,,,0,1:BXTEMP,0,3
0:BXtemp2,,Templiers,,42.74688660,2.81194340,,,0,1:BXTEMP,0,3
0:CYtreb1,,Teresa Rebull,,42.67608250,2.94472240,,,0,1:CYBRUX,0,3
0:CYtreb2,,Teresa Rebull,,42.67565150,2.94459870,,,0,1:CYBRUX,0,3
0:CNterr1,,Terre Rousse,,42.70705800,2.98159840,,,0,1:CNTERR,0,3
0:CNterr2,,Terre Rousse,,42.70697010,2.98178170,,,0,1:CNTERR,0,3
0:LBthal1,,Thalassa,,42.84106060,3.03786710,,,0,1:LBTHAL,0,3
0:LBthal2,,Thalassa,,42.84111790,3.03835080,,,0,1:LBTHAL,0,3
0:PEarci1,,Théâtre Archipel,,42.70092780,2.88920310,,,0,1:PETHAR,0,3
0:PEtorc1,,Torcatis,,42.70397960,2.89106390,,,0,1:PETORC,0,3
0:PEtorc2,,Torcatis,,42.70492160,2.88906220,,,0,1:PETORC,0,3
0:TRtorr1,,Torreilles,,42.75383370,2.99364330,,,0,1:TRTORR,0,3
0:TRtorr2,,Torreilles,,42.75371930,2.99378110,,,0,1:TRTORR,0,3
0:TRplag1,,Torreilles Plage,,42.76623920,3.03093150,,,0,1:TRPLAG,0,3
0:TRplag2,,Torreilles Plage,,42.76657860,3.03095130,,,0,1:TRPLAG,0,3
0:PEtorr3,,Torremila 1,,42.73173820,2.87031880,,,0,1:PETORR,0,3
0:PEtorr4,,Torremila 1,,42.73175380,2.87016910,,,0,1:PETORR,0,3
0:TOtoul1,,Toulouges,,42.67165370,2.83242580,,,0,1:TOTOUL,0,3
0:TOtoul2,,Toulouges,,42.67042920,2.83123400,,,0,1:TOTOUL,0,3
0:PEtour1,,Tourné,,42.66611690,2.89489060,,,0,1:PETOUR,0,3
0:PEtour2,,Tourné,,42.66583440,2.89472430,,,0,1:PETOUR,0,3
0:PEtour3,,Tourné,Déviation Av. Grégory,42.66628950,2.89408900,,,0,1:PETOUR,0,3
0:PEtour4,,Tourné,Déviation Av. Grégory,42.66621070,2.89417000,,,0,1:PETOUR,0,3
0:POtrav1,,Traverse,,42.64095320,2.86684250,,,0,1:POTRAV,0,3
0:CAtrig1,,Trignagues,,42.65973270,2.84356000,,,0,1:CATRIG,0,3
0:CAtrig2,,Trignagues,,42.65977100,2.84365060,,,0,1:CATRIG,0,3
0:FEtuil1,,Tuileries,,42.67962650,2.76451730,,,0,1:FETUIL,0,3
0:FEtuil2,,Tuileries,,42.67949680,2.76420430,,,0,1:FETUIL,0,3
0:PEturi1,,Turin,,42.69049070,2.85552170,,,0,1:PETURI,0,3
0:PEturi2,,Turin,,42.69030370,2.85569100,,,0,1:PETURI,0,3
0:LBtele1,,Téléski,,42.83761550,3.02623190,,,0,1:LBTELE,0,3
0:RIvald1,,Val d'Agly,,42.77810290,2.87478230,,,0,1:RIVALD,0,3
0:RIvald2,,Val d'Agly,,42.77819440,2.87493230,,,0,1:RIVALD,0,3
0:RAvald1,,Val des Vignes,,42.63179400,2.91679620,,,0,1:RAVALD,0,3
0:RAvald2,,Val des Vignes,,42.63178620,2.91665460,,,0,1:RAVALD,0,3
0:CYvali1,,Valiente,,42.68979640,2.93510390,,,0,1:CYVALI,0,3
0:CYvali2,,Valiente,,42.69052510,2.93552350,,,0,1:CYVALI,0,3
0:PEvari2,,Variétés,,42.70248720,2.89414370,,,0,1:PEVARI,0,3
0:PEvaub1,,Vauban,,42.70107640,2.89251590,,,0,1:PEVAUB,0,3
0:PEvaub2,,Vauban,,42.70095200,2.89179460,,,0,1:PEVAUB,0,3
0:PEvern1,,Vernet Salanque,,42.71657520,2.90149240,,,0,1:PEVERN,0,3
0:PEvern2,,Vernet Salanque,,42.71668230,2.90027880,,,0,1:PEVERN,0,3
0:CNvert1,,Vert Vallon,,42.69990530,2.99306990,,,0,1:CNVERT,0,3
0:PEvmas1,,Villa du Mas,,42.72621920,2.89444280,,,0,1:PEVMAS,0,3
0:PEvmas2,,Villa du Mas,,42.72616200,2.89476350,,,0,1:PEVMAS,0,3
0:RIvill1,,Village Entreprises,,42.80258180,2.89140440,,,0,1:RIVILL,0,3
0:RIvill2,,Village Entreprises,,42.80278020,2.89125230,,,0,1:RIVILL,0,3
0:VSvill1,,Villelongue Centre,,42.72760000,2.98250510,,,0,1:VSCEN,0,3
0:VSvill2,,Villelongue Centre,,42.72651290,2.98279020,,,0,1:VSCEN,0,3
0:PEvill1,,Villeneuve,,42.68542480,2.90190740,,,0,1:PEVILL,0,3
0:PEvill2,,Villeneuve,,42.68619470,2.90198510,,,0,1:PEVILL,0,3
0:RAvill2,,Villeneuve de la R.,,42.63061990,2.91498100,,,0,1:RAVILL,0,3
0:RAvill3,,Villeneuve de la R.,,42.63066030,2.91485370,,,0,1:RAVILL,0,3
0:VIvill1,,Villeneuve la Riv.,,42.69421760,2.80363750,,,0,1:VRVILL,0,3
0:VIvill2,,Villeneuve la Riv.,,42.69420240,2.80345200,,,0,1:VRVILL,0,3
0:VNving1,,Vingrau,,42.84769810,2.77981040,,,0,1:VNVING,0,3
0:VNving2,,Vingrau,,42.84786610,2.78088590,,,0,1:VNVING,0,3
0:TRviva1,,Vivaldi,,42.75273130,2.98809980,,,0,1:TRVIVA,0,3
0:TRviva2,,Vivaldi,,42.75268170,2.98829960,,,0,1:TRVIVA,0,3
0:PEwils1,,Wilson,,42.70211790,2.89614610,,,0,1:PEWILS,0,3
0:PEwils2,,Wilson,,42.70197680,2.89615820,,,0,1:PEWILS,0,3
0:ESzone1,,Zone Industrielle,,42.71770870,2.84944790,,,0,1:ESZONE,0,3
0:ESzone2,,Zone Industrielle,,42.71735400,2.84979500,,,0,1:ESZONE,0,3
0:CNzeph1,,Zéphir,,42.69940760,3.02422430,,,0,1:CNZEP,0,3
0:CNzeph2,,Zéphir,,42.69936730,3.02425960,,,0,1:CNZEP,0,3
